[
  {
    "ibgeCityCode": 5200050,
    "cityName": "Abadia de Goiás",
    "ibgeStateCode": 52,
    "state": "GO",
    "stateName": "Goiás",
    "latitude": -16.7573,
    "longitude": -49.4412
  },
  {
    "ibgeCityCode": 3100104,
    "cityName": "Abadia dos Dourados",
    "ibgeStateCode": 31,
    "state": "MG",
    "stateName": "Minas Gerais",
    "latitude": -18.4831,
    "longitude": -47.3916
  },
  {
    "ibgeCityCode": 5200100,
    "cityName": "Abadiânia",
    "ibgeStateCode": 52,
    "state": "GO",
    "stateName": "Goiás",
    "latitude": -16.197,
    "longitude": -48.7057
  },
  {
    "ibgeCityCode": 3100203,
    "cityName": "Abaeté",
    "ibgeStateCode": 31,
    "state": "MG",
    "stateName": "Minas Gerais",
    "latitude": -19.1551,
    "longitude": -45.4444
  },
  {
    "ibgeCityCode": 1500107,
    "cityName": "Abaetetuba",
    "ibgeStateCode": 15,
    "state": "PA",
    "stateName": "Pará",
    "latitude": -1.72183,
    "longitude": -48.8788
  },
  {
    "ibgeCityCode": 2300101,
    "cityName": "Abaiara",
    "ibgeStateCode": 23,
    "state": "CE",
    "stateName": "Ceará",
    "latitude": -7.34588,
    "longitude": -39.0416
  },
  {
    "ibgeCityCode": 2900108,
    "cityName": "Abaíra",
    "ibgeStateCode": 29,
    "state": "BA",
    "stateName": "Bahia",
    "latitude": -13.2488,
    "longitude": -41.6619
  },
  {
    "ibgeCityCode": 2900207,
    "cityName": "Abaré",
    "ibgeStateCode": 29,
    "state": "BA",
    "stateName": "Bahia",
    "latitude": -8.72073,
    "longitude": -39.1162
  },
  {
    "ibgeCityCode": 4100103,
    "cityName": "Abatiá",
    "ibgeStateCode": 41,
    "state": "PR",
    "stateName": "Paraná",
    "latitude": -23.3049,
    "longitude": -50.3133
  },
  {
    "ibgeCityCode": 4200051,
    "cityName": "Abdon Batista",
    "ibgeStateCode": 42,
    "state": "SC",
    "stateName": "Santa Catarina",
    "latitude": -27.6126,
    "longitude": -51.0233
  },
  {
    "ibgeCityCode": 1500131,
    "cityName": "Abel Figueiredo",
    "ibgeStateCode": 15,
    "state": "PA",
    "stateName": "Pará",
    "latitude": -4.95333,
    "longitude": -48.3933
  },
  {
    "ibgeCityCode": 4200101,
    "cityName": "Abelardo Luz",
    "ibgeStateCode": 42,
    "state": "SC",
    "stateName": "Santa Catarina",
    "latitude": -26.5716,
    "longitude": -52.3229
  },
  {
    "ibgeCityCode": 3100302,
    "cityName": "Abre Campo",
    "ibgeStateCode": 31,
    "state": "MG",
    "stateName": "Minas Gerais",
    "latitude": -20.2996,
    "longitude": -42.4743
  },
  {
    "ibgeCityCode": 2600054,
    "cityName": "Abreu e Lima",
    "ibgeStateCode": 26,
    "state": "PE",
    "stateName": "Pernambuco",
    "latitude": -7.90072,
    "longitude": -34.8984
  },
  {
    "ibgeCityCode": 1700251,
    "cityName": "Abreulândia",
    "ibgeStateCode": 17,
    "state": "TO",
    "stateName": "Tocantins",
    "latitude": -9.62101,
    "longitude": -49.1518
  },
  {
    "ibgeCityCode": 3100401,
    "cityName": "Acaiaca",
    "ibgeStateCode": 31,
    "state": "MG",
    "stateName": "Minas Gerais",
    "latitude": -20.359,
    "longitude": -43.1439
  },
  {
    "ibgeCityCode": 2100055,
    "cityName": "Açailândia",
    "ibgeStateCode": 21,
    "state": "MA",
    "stateName": "Maranhão",
    "latitude": -4.94714,
    "longitude": -47.5004
  },
  {
    "ibgeCityCode": 2900306,
    "cityName": "Acajutiba",
    "ibgeStateCode": 29,
    "state": "BA",
    "stateName": "Bahia",
    "latitude": -11.6575,
    "longitude": -38.0197
  },
  {
    "ibgeCityCode": 1500206,
    "cityName": "Acará",
    "ibgeStateCode": 15,
    "state": "PA",
    "stateName": "Pará",
    "latitude": -1.95383,
    "longitude": -48.1985
  },
  {
    "ibgeCityCode": 2300150,
    "cityName": "Acarape",
    "ibgeStateCode": 23,
    "state": "CE",
    "stateName": "Ceará",
    "latitude": -4.22083,
    "longitude": -38.7055
  },
  {
    "ibgeCityCode": 2300200,
    "cityName": "Acaraú",
    "ibgeStateCode": 23,
    "state": "CE",
    "stateName": "Ceará",
    "latitude": -2.88769,
    "longitude": -40.1183
  },
  {
    "ibgeCityCode": 2400109,
    "cityName": "Acari",
    "ibgeStateCode": 24,
    "state": "RN",
    "stateName": "Rio Grande do Norte",
    "latitude": -6.4282,
    "longitude": -36.6347
  },
  {
    "ibgeCityCode": 2200053,
    "cityName": "Acauã",
    "ibgeStateCode": 22,
    "state": "PI",
    "stateName": "Piauí",
    "latitude": -8.21954,
    "longitude": -41.0831
  },
  {
    "ibgeCityCode": 4300034,
    "cityName": "Aceguá",
    "ibgeStateCode": 43,
    "state": "RS",
    "stateName": "Rio Grande do Sul",
    "latitude": -31.8665,
    "longitude": -54.1615
  },
  {
    "ibgeCityCode": 2300309,
    "cityName": "Acopiara",
    "ibgeStateCode": 23,
    "state": "CE",
    "stateName": "Ceará",
    "latitude": -6.08911,
    "longitude": -39.448
  },
  {
    "ibgeCityCode": 5100102,
    "cityName": "Acorizal",
    "ibgeStateCode": 51,
    "state": "MT",
    "stateName": "Mato Grosso",
    "latitude": -15.194,
    "longitude": -56.3632
  },
  {
    "ibgeCityCode": 1200013,
    "cityName": "Acrelândia",
    "ibgeStateCode": 12,
    "state": "AC",
    "stateName": "Acre",
    "latitude": -9.82581,
    "longitude": -66.8972
  },
  {
    "ibgeCityCode": 5200134,
    "cityName": "Acreúna",
    "ibgeStateCode": 52,
    "state": "GO",
    "stateName": "Goiás",
    "latitude": -17.396,
    "longitude": -50.3749
  },
  {
    "ibgeCityCode": 3100500,
    "cityName": "Açucena",
    "ibgeStateCode": 31,
    "state": "MG",
    "stateName": "Minas Gerais",
    "latitude": -19.0671,
    "longitude": -42.5419
  },
  {
    "ibgeCityCode": 3500105,
    "cityName": "Adamantina",
    "ibgeStateCode": 35,
    "state": "SP",
    "stateName": "São Paulo",
    "latitude": -21.682,
    "longitude": -51.0737
  },
  {
    "ibgeCityCode": 5200159,
    "cityName": "Adelândia",
    "ibgeStateCode": 52,
    "state": "GO",
    "stateName": "Goiás",
    "latitude": -16.4127,
    "longitude": -50.1657
  },
  {
    "ibgeCityCode": 3500204,
    "cityName": "Adolfo",
    "ibgeStateCode": 35,
    "state": "SP",
    "stateName": "São Paulo",
    "latitude": -21.2325,
    "longitude": -49.6451
  },
  {
    "ibgeCityCode": 4100202,
    "cityName": "Adrianópolis",
    "ibgeStateCode": 41,
    "state": "PR",
    "stateName": "Paraná",
    "latitude": -24.6606,
    "longitude": -48.9922
  },
  {
    "ibgeCityCode": 2900355,
    "cityName": "Adustina",
    "ibgeStateCode": 29,
    "state": "BA",
    "stateName": "Bahia",
    "latitude": -10.5437,
    "longitude": -38.1113
  },
  {
    "ibgeCityCode": 2600104,
    "cityName": "Afogados da Ingazeira",
    "ibgeStateCode": 26,
    "state": "PE",
    "stateName": "Pernambuco",
    "latitude": -7.74312,
    "longitude": -37.631
  },
  {
    "ibgeCityCode": 2400307,
    "cityName": "Afonso Bezerra",
    "ibgeStateCode": 24,
    "state": "RN",
    "stateName": "Rio Grande do Norte",
    "latitude": -5.49229,
    "longitude": -36.5075
  },
  {
    "ibgeCityCode": 3200102,
    "cityName": "Afonso Cláudio",
    "ibgeStateCode": 32,
    "state": "ES",
    "stateName": "Espírito Santo",
    "latitude": -20.0778,
    "longitude": -41.1261
  },
  {
    "ibgeCityCode": 2100105,
    "cityName": "Afonso Cunha",
    "ibgeStateCode": 21,
    "state": "MA",
    "stateName": "Maranhão",
    "latitude": -4.13631,
    "longitude": -43.3275
  },
  {
    "ibgeCityCode": 2600203,
    "cityName": "Afrânio",
    "ibgeStateCode": 26,
    "state": "PE",
    "stateName": "Pernambuco",
    "latitude": -8.51136,
    "longitude": -41.0095
  },
  {
    "ibgeCityCode": 1500305,
    "cityName": "Afuá",
    "ibgeStateCode": 15,
    "state": "PA",
    "stateName": "Pará",
    "latitude": -0.154874,
    "longitude": -50.3861
  },
  {
    "ibgeCityCode": 2600302,
    "cityName": "Agrestina",
    "ibgeStateCode": 26,
    "state": "PE",
    "stateName": "Pernambuco",
    "latitude": -8.45966,
    "longitude": -35.9447
  },
  {
    "ibgeCityCode": 2200103,
    "cityName": "Agricolândia",
    "ibgeStateCode": 22,
    "state": "PI",
    "stateName": "Piauí",
    "latitude": -5.79676,
    "longitude": -42.6664
  },
  {
    "ibgeCityCode": 4200200,
    "cityName": "Agrolândia",
    "ibgeStateCode": 42,
    "state": "SC",
    "stateName": "Santa Catarina",
    "latitude": -27.4087,
    "longitude": -49.822
  },
  {
    "ibgeCityCode": 4200309,
    "cityName": "Agronômica",
    "ibgeStateCode": 42,
    "state": "SC",
    "stateName": "Santa Catarina",
    "latitude": -27.2662,
    "longitude": -49.708
  },
  {
    "ibgeCityCode": 1500347,
    "cityName": "Água Azul do Norte",
    "ibgeStateCode": 15,
    "state": "PA",
    "stateName": "Pará",
    "latitude": -6.79053,
    "longitude": -50.4791
  },
  {
    "ibgeCityCode": 3100609,
    "cityName": "Água Boa",
    "ibgeStateCode": 31,
    "state": "MG",
    "stateName": "Minas Gerais",
    "latitude": -17.9914,
    "longitude": -42.3806
  },
  {
    "ibgeCityCode": 5100201,
    "cityName": "Água Boa",
    "ibgeStateCode": 51,
    "state": "MT",
    "stateName": "Mato Grosso",
    "latitude": -14.051,
    "longitude": -52.1601
  },
  {
    "ibgeCityCode": 2700102,
    "cityName": "Água Branca",
    "ibgeStateCode": 27,
    "state": "AL",
    "stateName": "Alagoas",
    "latitude": -9.262,
    "longitude": -37.938
  },
  {
    "ibgeCityCode": 2200202,
    "cityName": "Água Branca",
    "ibgeStateCode": 22,
    "state": "PI",
    "stateName": "Piauí",
    "latitude": -5.88856,
    "longitude": -42.637
  },
  {
    "ibgeCityCode": 2500106,
    "cityName": "Água Branca",
    "ibgeStateCode": 25,
    "state": "PB",
    "stateName": "Paraíba",
    "latitude": -7.51144,
    "longitude": -37.6357
  },
  {
    "ibgeCityCode": 5000203,
    "cityName": "Água Clara",
    "ibgeStateCode": 50,
    "state": "MS",
    "stateName": "Mato Grosso do Sul",
    "latitude": -20.4452,
    "longitude": -52.879
  },
  {
    "ibgeCityCode": 3100708,
    "cityName": "Água Comprida",
    "ibgeStateCode": 31,
    "state": "MG",
    "stateName": "Minas Gerais",
    "latitude": -20.0576,
    "longitude": -48.1069
  },
  {
    "ibgeCityCode": 4200408,
    "cityName": "Água Doce",
    "ibgeStateCode": 42,
    "state": "SC",
    "stateName": "Santa Catarina",
    "latitude": -26.9985,
    "longitude": -51.5528
  },
  {
    "ibgeCityCode": 2100154,
    "cityName": "Água Doce do Maranhão",
    "ibgeStateCode": 21,
    "state": "MA",
    "stateName": "Maranhão",
    "latitude": -2.84048,
    "longitude": -42.1189
  },
  {
    "ibgeCityCode": 3200169,
    "cityName": "Água Doce do Norte",
    "ibgeStateCode": 32,
    "state": "ES",
    "stateName": "Espírito Santo",
    "latitude": -18.5482,
    "longitude": -40.9854
  },
  {
    "ibgeCityCode": 2900405,
    "cityName": "Água Fria",
    "ibgeStateCode": 29,
    "state": "BA",
    "stateName": "Bahia",
    "latitude": -11.8618,
    "longitude": -38.7639
  },
  {
    "ibgeCityCode": 5200175,
    "cityName": "Água Fria de Goiás",
    "ibgeStateCode": 52,
    "state": "GO",
    "stateName": "Goiás",
    "latitude": -14.9778,
    "longitude": -47.7823
  },
  {
    "ibgeCityCode": 5200209,
    "cityName": "Água Limpa",
    "ibgeStateCode": 52,
    "state": "GO",
    "stateName": "Goiás",
    "latitude": -18.0771,
    "longitude": -48.7603
  },
  {
    "ibgeCityCode": 2400406,
    "cityName": "Água Nova",
    "ibgeStateCode": 24,
    "state": "RN",
    "stateName": "Rio Grande do Norte",
    "latitude": -6.20351,
    "longitude": -38.2941
  },
  {
    "ibgeCityCode": 2600401,
    "cityName": "Água Preta",
    "ibgeStateCode": 26,
    "state": "PE",
    "stateName": "Pernambuco",
    "latitude": -8.70609,
    "longitude": -35.5263
  },
  {
    "ibgeCityCode": 4300059,
    "cityName": "Água Santa",
    "ibgeStateCode": 43,
    "state": "RS",
    "stateName": "Rio Grande do Sul",
    "latitude": -28.1672,
    "longitude": -52.031
  },
  {
    "ibgeCityCode": 3500303,
    "cityName": "Aguaí",
    "ibgeStateCode": 35,
    "state": "SP",
    "stateName": "São Paulo",
    "latitude": -22.0572,
    "longitude": -46.9735
  },
  {
    "ibgeCityCode": 3100807,
    "cityName": "Aguanil",
    "ibgeStateCode": 31,
    "state": "MG",
    "stateName": "Minas Gerais",
    "latitude": -20.9439,
    "longitude": -45.3915
  },
  {
    "ibgeCityCode": 2600500,
    "cityName": "Águas Belas",
    "ibgeStateCode": 26,
    "state": "PE",
    "stateName": "Pernambuco",
    "latitude": -9.11125,
    "longitude": -37.1226
  },
  {
    "ibgeCityCode": 3500402,
    "cityName": "Águas da Prata",
    "ibgeStateCode": 35,
    "state": "SP",
    "stateName": "São Paulo",
    "latitude": -21.9319,
    "longitude": -46.7176
  },
  {
    "ibgeCityCode": 4200507,
    "cityName": "Águas de Chapecó",
    "ibgeStateCode": 42,
    "state": "SC",
    "stateName": "Santa Catarina",
    "latitude": -27.0754,
    "longitude": -52.9808
  },
  {
    "ibgeCityCode": 3500501,
    "cityName": "Águas de Lindóia",
    "ibgeStateCode": 35,
    "state": "SP",
    "stateName": "São Paulo",
    "latitude": -22.4733,
    "longitude": -46.6314
  },
  {
    "ibgeCityCode": 3500550,
    "cityName": "Águas de Santa Bárbara",
    "ibgeStateCode": 35,
    "state": "SP",
    "stateName": "São Paulo",
    "latitude": -22.8812,
    "longitude": -49.2421
  },
  {
    "ibgeCityCode": 3500600,
    "cityName": "Águas de São Pedro",
    "ibgeStateCode": 35,
    "state": "SP",
    "stateName": "São Paulo",
    "latitude": -22.5977,
    "longitude": -47.8734
  },
  {
    "ibgeCityCode": 3100906,
    "cityName": "Águas Formosas",
    "ibgeStateCode": 31,
    "state": "MG",
    "stateName": "Minas Gerais",
    "latitude": -17.0802,
    "longitude": -40.9384
  },
  {
    "ibgeCityCode": 4200556,
    "cityName": "Águas Frias",
    "ibgeStateCode": 42,
    "state": "SC",
    "stateName": "Santa Catarina",
    "latitude": -26.8794,
    "longitude": -52.8568
  },
  {
    "ibgeCityCode": 5200258,
    "cityName": "Águas Lindas de Goiás",
    "ibgeStateCode": 52,
    "state": "GO",
    "stateName": "Goiás",
    "latitude": -15.7617,
    "longitude": -48.2816
  },
  {
    "ibgeCityCode": 4200606,
    "cityName": "Águas Mornas",
    "ibgeStateCode": 42,
    "state": "SC",
    "stateName": "Santa Catarina",
    "latitude": -27.6963,
    "longitude": -48.8243
  },
  {
    "ibgeCityCode": 3101003,
    "cityName": "Águas Vermelhas",
    "ibgeStateCode": 31,
    "state": "MG",
    "stateName": "Minas Gerais",
    "latitude": -15.7431,
    "longitude": -41.4571
  },
  {
    "ibgeCityCode": 4300109,
    "cityName": "Agudo",
    "ibgeStateCode": 43,
    "state": "RS",
    "stateName": "Rio Grande do Sul",
    "latitude": -29.6447,
    "longitude": -53.2515
  },
  {
    "ibgeCityCode": 3500709,
    "cityName": "Agudos",
    "ibgeStateCode": 35,
    "state": "SP",
    "stateName": "São Paulo",
    "latitude": -22.4694,
    "longitude": -48.9863
  },
  {
    "ibgeCityCode": 4100301,
    "cityName": "Agudos do Sul",
    "ibgeStateCode": 41,
    "state": "PR",
    "stateName": "Paraná",
    "latitude": -25.9899,
    "longitude": -49.3343
  },
  {
    "ibgeCityCode": 3200136,
    "cityName": "Águia Branca",
    "ibgeStateCode": 32,
    "state": "ES",
    "stateName": "Espírito Santo",
    "latitude": -18.9846,
    "longitude": -40.7437
  },
  {
    "ibgeCityCode": 2500205,
    "cityName": "Aguiar",
    "ibgeStateCode": 25,
    "state": "PB",
    "stateName": "Paraíba",
    "latitude": -7.0918,
    "longitude": -38.1681
  },
  {
    "ibgeCityCode": 1700301,
    "cityName": "Aguiarnópolis",
    "ibgeStateCode": 17,
    "state": "TO",
    "stateName": "Tocantins",
    "latitude": -6.55409,
    "longitude": -47.4702
  },
  {
    "ibgeCityCode": 3101102,
    "cityName": "Aimorés",
    "ibgeStateCode": 31,
    "state": "MG",
    "stateName": "Minas Gerais",
    "latitude": -19.5007,
    "longitude": -41.0746
  },
  {
    "ibgeCityCode": 2900603,
    "cityName": "Aiquara",
    "ibgeStateCode": 29,
    "state": "BA",
    "stateName": "Bahia",
    "latitude": -14.1269,
    "longitude": -39.8937
  },
  {
    "ibgeCityCode": 2300408,
    "cityName": "Aiuaba",
    "ibgeStateCode": 23,
    "state": "CE",
    "stateName": "Ceará",
    "latitude": -6.57122,
    "longitude": -40.1178
  },
  {
    "ibgeCityCode": 3101201,
    "cityName": "Aiuruoca",
    "ibgeStateCode": 31,
    "state": "MG",
    "stateName": "Minas Gerais",
    "latitude": -21.9736,
    "longitude": -44.6042
  },
  {
    "ibgeCityCode": 4300208,
    "cityName": "Ajuricaba",
    "ibgeStateCode": 43,
    "state": "RS",
    "stateName": "Rio Grande do Sul",
    "latitude": -28.2342,
    "longitude": -53.7757
  },
  {
    "ibgeCityCode": 3101300,
    "cityName": "Alagoa",
    "ibgeStateCode": 31,
    "state": "MG",
    "stateName": "Minas Gerais",
    "latitude": -22.171,
    "longitude": -44.6413
  },
  {
    "ibgeCityCode": 2500304,
    "cityName": "Alagoa Grande",
    "ibgeStateCode": 25,
    "state": "PB",
    "stateName": "Paraíba",
    "latitude": -7.03943,
    "longitude": -35.6206
  },
  {
    "ibgeCityCode": 2500403,
    "cityName": "Alagoa Nova",
    "ibgeStateCode": 25,
    "state": "PB",
    "stateName": "Paraíba",
    "latitude": -7.05377,
    "longitude": -35.7591
  },
  {
    "ibgeCityCode": 2500502,
    "cityName": "Alagoinha",
    "ibgeStateCode": 25,
    "state": "PB",
    "stateName": "Paraíba",
    "latitude": -6.94657,
    "longitude": -35.5332
  },
  {
    "ibgeCityCode": 2600609,
    "cityName": "Alagoinha",
    "ibgeStateCode": 26,
    "state": "PE",
    "stateName": "Pernambuco",
    "latitude": -8.4665,
    "longitude": -36.7788
  },
  {
    "ibgeCityCode": 2200251,
    "cityName": "Alagoinha do Piauí",
    "ibgeStateCode": 22,
    "state": "PI",
    "stateName": "Piauí",
    "latitude": -7.00039,
    "longitude": -40.9282
  },
  {
    "ibgeCityCode": 2900702,
    "cityName": "Alagoinhas",
    "ibgeStateCode": 29,
    "state": "BA",
    "stateName": "Bahia",
    "latitude": -12.1335,
    "longitude": -38.4208
  },
  {
    "ibgeCityCode": 3500758,
    "cityName": "Alambari",
    "ibgeStateCode": 35,
    "state": "SP",
    "stateName": "São Paulo",
    "latitude": -23.5503,
    "longitude": -47.898
  },
  {
    "ibgeCityCode": 3101409,
    "cityName": "Albertina",
    "ibgeStateCode": 31,
    "state": "MG",
    "stateName": "Minas Gerais",
    "latitude": -22.2018,
    "longitude": -46.6139
  },
  {
    "ibgeCityCode": 2100204,
    "cityName": "Alcântara",
    "ibgeStateCode": 21,
    "state": "MA",
    "stateName": "Maranhão",
    "latitude": -2.39574,
    "longitude": -44.4062
  },
  {
    "ibgeCityCode": 2300507,
    "cityName": "Alcântaras",
    "ibgeStateCode": 23,
    "state": "CE",
    "stateName": "Ceará",
    "latitude": -3.58537,
    "longitude": -40.5479
  },
  {
    "ibgeCityCode": 2500536,
    "cityName": "Alcantil",
    "ibgeStateCode": 25,
    "state": "PB",
    "stateName": "Paraíba",
    "latitude": -7.73668,
    "longitude": -36.0511
  },
  {
    "ibgeCityCode": 5000252,
    "cityName": "Alcinópolis",
    "ibgeStateCode": 50,
    "state": "MS",
    "stateName": "Mato Grosso do Sul",
    "latitude": -18.3255,
    "longitude": -53.7042
  },
  {
    "ibgeCityCode": 2900801,
    "cityName": "Alcobaça",
    "ibgeStateCode": 29,
    "state": "BA",
    "stateName": "Bahia",
    "latitude": -17.5195,
    "longitude": -39.2036
  },
  {
    "ibgeCityCode": 2100303,
    "cityName": "Aldeias Altas",
    "ibgeStateCode": 21,
    "state": "MA",
    "stateName": "Maranhão",
    "latitude": -4.62621,
    "longitude": -43.4689
  },
  {
    "ibgeCityCode": 4300307,
    "cityName": "Alecrim",
    "ibgeStateCode": 43,
    "state": "RS",
    "stateName": "Rio Grande do Sul",
    "latitude": -27.6579,
    "longitude": -54.7649
  },
  {
    "ibgeCityCode": 3200201,
    "cityName": "Alegre",
    "ibgeStateCode": 32,
    "state": "ES",
    "stateName": "Espírito Santo",
    "latitude": -20.758,
    "longitude": -41.5382
  },
  {
    "ibgeCityCode": 4300406,
    "cityName": "Alegrete",
    "ibgeStateCode": 43,
    "state": "RS",
    "stateName": "Rio Grande do Sul",
    "latitude": -29.7902,
    "longitude": -55.7949
  },
  {
    "ibgeCityCode": 2200277,
    "cityName": "Alegrete do Piauí",
    "ibgeStateCode": 22,
    "state": "PI",
    "stateName": "Piauí",
    "latitude": -7.24196,
    "longitude": -40.8566
  },
  {
    "ibgeCityCode": 4300455,
    "cityName": "Alegria",
    "ibgeStateCode": 43,
    "state": "RS",
    "stateName": "Rio Grande do Sul",
    "latitude": -27.8345,
    "longitude": -54.0557
  },
  {
    "ibgeCityCode": 3101508,
    "cityName": "Além Paraíba",
    "ibgeStateCode": 31,
    "state": "MG",
    "stateName": "Minas Gerais",
    "latitude": -21.8797,
    "longitude": -42.7176
  },
  {
    "ibgeCityCode": 1500404,
    "cityName": "Alenquer",
    "ibgeStateCode": 15,
    "state": "PA",
    "stateName": "Pará",
    "latitude": -1.94623,
    "longitude": -54.7384
  },
  {
    "ibgeCityCode": 2400505,
    "cityName": "Alexandria",
    "ibgeStateCode": 24,
    "state": "RN",
    "stateName": "Rio Grande do Norte",
    "latitude": -6.40533,
    "longitude": -38.0142
  },
  {
    "ibgeCityCode": 5200308,
    "cityName": "Alexânia",
    "ibgeStateCode": 52,
    "state": "GO",
    "stateName": "Goiás",
    "latitude": -16.0834,
    "longitude": -48.5076
  },
  {
    "ibgeCityCode": 3101607,
    "cityName": "Alfenas",
    "ibgeStateCode": 31,
    "state": "MG",
    "stateName": "Minas Gerais",
    "latitude": -21.4256,
    "longitude": -45.9477
  },
  {
    "ibgeCityCode": 3200300,
    "cityName": "Alfredo Chaves",
    "ibgeStateCode": 32,
    "state": "ES",
    "stateName": "Espírito Santo",
    "latitude": -20.6396,
    "longitude": -40.7543
  },
  {
    "ibgeCityCode": 3500808,
    "cityName": "Alfredo Marcondes",
    "ibgeStateCode": 35,
    "state": "SP",
    "stateName": "São Paulo",
    "latitude": -21.9527,
    "longitude": -51.414
  },
  {
    "ibgeCityCode": 3101631,
    "cityName": "Alfredo Vasconcelos",
    "ibgeStateCode": 31,
    "state": "MG",
    "stateName": "Minas Gerais",
    "latitude": -21.1535,
    "longitude": -43.7718
  },
  {
    "ibgeCityCode": 4200705,
    "cityName": "Alfredo Wagner",
    "ibgeStateCode": 42,
    "state": "SC",
    "stateName": "Santa Catarina",
    "latitude": -27.7001,
    "longitude": -49.3273
  },
  {
    "ibgeCityCode": 2500577,
    "cityName": "Algodão de Jandaíra",
    "ibgeStateCode": 25,
    "state": "PB",
    "stateName": "Paraíba",
    "latitude": -6.89292,
    "longitude": -36.0129
  },
  {
    "ibgeCityCode": 2500601,
    "cityName": "Alhandra",
    "ibgeStateCode": 25,
    "state": "PB",
    "stateName": "Paraíba",
    "latitude": -7.42977,
    "longitude": -34.9057
  },
  {
    "ibgeCityCode": 2600708,
    "cityName": "Aliança",
    "ibgeStateCode": 26,
    "state": "PE",
    "stateName": "Pernambuco",
    "latitude": -7.60398,
    "longitude": -35.2227
  },
  {
    "ibgeCityCode": 1700350,
    "cityName": "Aliança do Tocantins",
    "ibgeStateCode": 17,
    "state": "TO",
    "stateName": "Tocantins",
    "latitude": -11.3056,
    "longitude": -48.9361
  },
  {
    "ibgeCityCode": 2900900,
    "cityName": "Almadina",
    "ibgeStateCode": 29,
    "state": "BA",
    "stateName": "Bahia",
    "latitude": -14.7089,
    "longitude": -39.6415
  },
  {
    "ibgeCityCode": 1700400,
    "cityName": "Almas",
    "ibgeStateCode": 17,
    "state": "TO",
    "stateName": "Tocantins",
    "latitude": -11.5706,
    "longitude": -47.1792
  },
  {
    "ibgeCityCode": 3101706,
    "cityName": "Almenara",
    "ibgeStateCode": 31,
    "state": "MG",
    "stateName": "Minas Gerais",
    "latitude": -16.1785,
    "longitude": -40.6942
  },
  {
    "ibgeCityCode": 2400604,
    "cityName": "Almino Afonso",
    "ibgeStateCode": 24,
    "state": "RN",
    "stateName": "Rio Grande do Norte",
    "latitude": -6.1475,
    "longitude": -37.7636
  },
  {
    "ibgeCityCode": 4100400,
    "cityName": "Almirante Tamandaré",
    "ibgeStateCode": 41,
    "state": "PR",
    "stateName": "Paraná",
    "latitude": -25.3188,
    "longitude": -49.3037
  },
  {
    "ibgeCityCode": 4300471,
    "cityName": "Almirante Tamandaré do Sul",
    "ibgeStateCode": 43,
    "state": "RS",
    "stateName": "Rio Grande do Sul",
    "latitude": -28.1149,
    "longitude": -52.9142
  },
  {
    "ibgeCityCode": 5200506,
    "cityName": "Aloândia",
    "ibgeStateCode": 52,
    "state": "GO",
    "stateName": "Goiás",
    "latitude": -17.7292,
    "longitude": -49.4769
  },
  {
    "ibgeCityCode": 3101805,
    "cityName": "Alpercata",
    "ibgeStateCode": 31,
    "state": "MG",
    "stateName": "Minas Gerais",
    "latitude": -18.974,
    "longitude": -41.97
  },
  {
    "ibgeCityCode": 4300505,
    "cityName": "Alpestre",
    "ibgeStateCode": 43,
    "state": "RS",
    "stateName": "Rio Grande do Sul",
    "latitude": -27.2502,
    "longitude": -53.0341
  },
  {
    "ibgeCityCode": 3101904,
    "cityName": "Alpinópolis",
    "ibgeStateCode": 31,
    "state": "MG",
    "stateName": "Minas Gerais",
    "latitude": -20.8631,
    "longitude": -46.3878
  },
  {
    "ibgeCityCode": 5100250,
    "cityName": "Alta Floresta",
    "ibgeStateCode": 51,
    "state": "MT",
    "stateName": "Mato Grosso",
    "latitude": -9.86674,
    "longitude": -56.0867
  },
  {
    "ibgeCityCode": 1100015,
    "cityName": "Alta Floresta D'Oeste",
    "ibgeStateCode": 11,
    "state": "RO",
    "stateName": "Rondônia",
    "latitude": -11.9283,
    "longitude": -61.9953
  },
  {
    "ibgeCityCode": 3500907,
    "cityName": "Altair",
    "ibgeStateCode": 35,
    "state": "SP",
    "stateName": "São Paulo",
    "latitude": -20.5242,
    "longitude": -49.0571
  },
  {
    "ibgeCityCode": 1500602,
    "cityName": "Altamira",
    "ibgeStateCode": 15,
    "state": "PA",
    "stateName": "Pará",
    "latitude": -3.20407,
    "longitude": -52.21
  },
  {
    "ibgeCityCode": 2100402,
    "cityName": "Altamira do Maranhão",
    "ibgeStateCode": 21,
    "state": "MA",
    "stateName": "Maranhão",
    "latitude": -4.16598,
    "longitude": -45.4706
  },
  {
    "ibgeCityCode": 4100459,
    "cityName": "Altamira do Paraná",
    "ibgeStateCode": 41,
    "state": "PR",
    "stateName": "Paraná",
    "latitude": -24.7983,
    "longitude": -52.7128
  },
  {
    "ibgeCityCode": 2300606,
    "cityName": "Altaneira",
    "ibgeStateCode": 23,
    "state": "CE",
    "stateName": "Ceará",
    "latitude": -6.99837,
    "longitude": -39.7356
  },
  {
    "ibgeCityCode": 3102001,
    "cityName": "Alterosa",
    "ibgeStateCode": 31,
    "state": "MG",
    "stateName": "Minas Gerais",
    "latitude": -21.2488,
    "longitude": -46.1387
  },
  {
    "ibgeCityCode": 2600807,
    "cityName": "Altinho",
    "ibgeStateCode": 26,
    "state": "PE",
    "stateName": "Pernambuco",
    "latitude": -8.48482,
    "longitude": -36.0644
  },
  {
    "ibgeCityCode": 3501004,
    "cityName": "Altinópolis",
    "ibgeStateCode": 35,
    "state": "SP",
    "stateName": "São Paulo",
    "latitude": -21.0214,
    "longitude": -47.3712
  },
  {
    "ibgeCityCode": 4300554,
    "cityName": "Alto Alegre",
    "ibgeStateCode": 43,
    "state": "RS",
    "stateName": "Rio Grande do Sul",
    "latitude": -28.7769,
    "longitude": -52.9893
  },
  {
    "ibgeCityCode": 1400050,
    "cityName": "Alto Alegre",
    "ibgeStateCode": 14,
    "state": "RR",
    "stateName": "Roraima",
    "latitude": 2.98858,
    "longitude": -61.3072
  },
  {
    "ibgeCityCode": 3501103,
    "cityName": "Alto Alegre",
    "ibgeStateCode": 35,
    "state": "SP",
    "stateName": "São Paulo",
    "latitude": -21.5811,
    "longitude": -50.168
  },
  {
    "ibgeCityCode": 2100436,
    "cityName": "Alto Alegre do Maranhão",
    "ibgeStateCode": 21,
    "state": "MA",
    "stateName": "Maranhão",
    "latitude": -4.213,
    "longitude": -44.446
  },
  {
    "ibgeCityCode": 2100477,
    "cityName": "Alto Alegre do Pindaré",
    "ibgeStateCode": 21,
    "state": "MA",
    "stateName": "Maranhão",
    "latitude": -3.66689,
    "longitude": -45.8421
  },
  {
    "ibgeCityCode": 1100379,
    "cityName": "Alto Alegre dos Parecis",
    "ibgeStateCode": 11,
    "state": "RO",
    "stateName": "Rondônia",
    "latitude": -12.132,
    "longitude": -61.835
  },
  {
    "ibgeCityCode": 5100300,
    "cityName": "Alto Araguaia",
    "ibgeStateCode": 51,
    "state": "MT",
    "stateName": "Mato Grosso",
    "latitude": -17.3153,
    "longitude": -53.2181
  },
  {
    "ibgeCityCode": 4200754,
    "cityName": "Alto Bela Vista",
    "ibgeStateCode": 42,
    "state": "SC",
    "stateName": "Santa Catarina",
    "latitude": -27.4333,
    "longitude": -51.9044
  },
  {
    "ibgeCityCode": 5100359,
    "cityName": "Alto Boa Vista",
    "ibgeStateCode": 51,
    "state": "MT",
    "stateName": "Mato Grosso",
    "latitude": -11.6732,
    "longitude": -51.3883
  },
  {
    "ibgeCityCode": 3102050,
    "cityName": "Alto Caparaó",
    "ibgeStateCode": 31,
    "state": "MG",
    "stateName": "Minas Gerais",
    "latitude": -20.431,
    "longitude": -41.8738
  },
  {
    "ibgeCityCode": 2400703,
    "cityName": "Alto do Rodrigues",
    "ibgeStateCode": 24,
    "state": "RN",
    "stateName": "Rio Grande do Norte",
    "latitude": -5.28186,
    "longitude": -36.75
  },
  {
    "ibgeCityCode": 4300570,
    "cityName": "Alto Feliz",
    "ibgeStateCode": 43,
    "state": "RS",
    "stateName": "Rio Grande do Sul",
    "latitude": -29.3919,
    "longitude": -51.3123
  },
  {
    "ibgeCityCode": 5100409,
    "cityName": "Alto Garças",
    "ibgeStateCode": 51,
    "state": "MT",
    "stateName": "Mato Grosso",
    "latitude": -16.9462,
    "longitude": -53.5272
  },
  {
    "ibgeCityCode": 5200555,
    "cityName": "Alto Horizonte",
    "ibgeStateCode": 52,
    "state": "GO",
    "stateName": "Goiás",
    "latitude": -14.1978,
    "longitude": -49.3378
  },
  {
    "ibgeCityCode": 3153509,
    "cityName": "Alto Jequitibá",
    "ibgeStateCode": 31,
    "state": "MG",
    "stateName": "Minas Gerais",
    "latitude": -20.4208,
    "longitude": -41.967
  },
  {
    "ibgeCityCode": 2200301,
    "cityName": "Alto Longá",
    "ibgeStateCode": 22,
    "state": "PI",
    "stateName": "Piauí",
    "latitude": -5.25634,
    "longitude": -42.2096
  },
  {
    "ibgeCityCode": 5100508,
    "cityName": "Alto Paraguai",
    "ibgeStateCode": 51,
    "state": "MT",
    "stateName": "Mato Grosso",
    "latitude": -14.5137,
    "longitude": -56.4776
  },
  {
    "ibgeCityCode": 1100403,
    "cityName": "Alto Paraíso",
    "ibgeStateCode": 11,
    "state": "RO",
    "stateName": "Rondônia",
    "latitude": -9.71429,
    "longitude": -63.3188
  },
  {
    "ibgeCityCode": 5200605,
    "cityName": "Alto Paraíso de Goiás",
    "ibgeStateCode": 52,
    "state": "GO",
    "stateName": "Goiás",
    "latitude": -14.1305,
    "longitude": -47.51
  },
  {
    "ibgeCityCode": 4100608,
    "cityName": "Alto Paraná",
    "ibgeStateCode": 41,
    "state": "PR",
    "stateName": "Paraná",
    "latitude": -23.1312,
    "longitude": -52.3189
  },
  {
    "ibgeCityCode": 2100501,
    "cityName": "Alto Parnaíba",
    "ibgeStateCode": 21,
    "state": "MA",
    "stateName": "Maranhão",
    "latitude": -9.10273,
    "longitude": -45.9303
  },
  {
    "ibgeCityCode": 4100707,
    "cityName": "Alto Piquiri",
    "ibgeStateCode": 41,
    "state": "PR",
    "stateName": "Paraná",
    "latitude": -24.0224,
    "longitude": -53.44
  },
  {
    "ibgeCityCode": 3102100,
    "cityName": "Alto Rio Doce",
    "ibgeStateCode": 31,
    "state": "MG",
    "stateName": "Minas Gerais",
    "latitude": -21.0281,
    "longitude": -43.4067
  },
  {
    "ibgeCityCode": 3200359,
    "cityName": "Alto Rio Novo",
    "ibgeStateCode": 32,
    "state": "ES",
    "stateName": "Espírito Santo",
    "latitude": -19.0618,
    "longitude": -41.0209
  },
  {
    "ibgeCityCode": 2300705,
    "cityName": "Alto Santo",
    "ibgeStateCode": 23,
    "state": "CE",
    "stateName": "Ceará",
    "latitude": -5.50894,
    "longitude": -38.2743
  },
  {
    "ibgeCityCode": 5100607,
    "cityName": "Alto Taquari",
    "ibgeStateCode": 51,
    "state": "MT",
    "stateName": "Mato Grosso",
    "latitude": -17.8241,
    "longitude": -53.2792
  },
  {
    "ibgeCityCode": 4100509,
    "cityName": "Altônia",
    "ibgeStateCode": 41,
    "state": "PR",
    "stateName": "Paraná",
    "latitude": -23.8759,
    "longitude": -53.8958
  },
  {
    "ibgeCityCode": 2200400,
    "cityName": "Altos",
    "ibgeStateCode": 22,
    "state": "PI",
    "stateName": "Piauí",
    "latitude": -5.03888,
    "longitude": -42.4612
  },
  {
    "ibgeCityCode": 3501152,
    "cityName": "Alumínio",
    "ibgeStateCode": 35,
    "state": "SP",
    "stateName": "São Paulo",
    "latitude": -23.5306,
    "longitude": -47.2546
  },
  {
    "ibgeCityCode": 1300029,
    "cityName": "Alvarães",
    "ibgeStateCode": 13,
    "state": "AM",
    "stateName": "Amazonas",
    "latitude": -3.22727,
    "longitude": -64.8007
  },
  {
    "ibgeCityCode": 3102209,
    "cityName": "Alvarenga",
    "ibgeStateCode": 31,
    "state": "MG",
    "stateName": "Minas Gerais",
    "latitude": -19.4174,
    "longitude": -41.7317
  },
  {
    "ibgeCityCode": 3501202,
    "cityName": "Álvares Florence",
    "ibgeStateCode": 35,
    "state": "SP",
    "stateName": "São Paulo",
    "latitude": -20.3203,
    "longitude": -49.9141
  },
  {
    "ibgeCityCode": 3501301,
    "cityName": "Álvares Machado",
    "ibgeStateCode": 35,
    "state": "SP",
    "stateName": "São Paulo",
    "latitude": -22.0764,
    "longitude": -51.4722
  },
  {
    "ibgeCityCode": 3501400,
    "cityName": "Álvaro de Carvalho",
    "ibgeStateCode": 35,
    "state": "SP",
    "stateName": "São Paulo",
    "latitude": -22.0841,
    "longitude": -49.719
  },
  {
    "ibgeCityCode": 3501509,
    "cityName": "Alvinlândia",
    "ibgeStateCode": 35,
    "state": "SP",
    "stateName": "São Paulo",
    "latitude": -22.4435,
    "longitude": -49.7623
  },
  {
    "ibgeCityCode": 3102308,
    "cityName": "Alvinópolis",
    "ibgeStateCode": 31,
    "state": "MG",
    "stateName": "Minas Gerais",
    "latitude": -20.1098,
    "longitude": -43.0535
  },
  {
    "ibgeCityCode": 4300604,
    "cityName": "Alvorada",
    "ibgeStateCode": 43,
    "state": "RS",
    "stateName": "Rio Grande do Sul",
    "latitude": -29.9914,
    "longitude": -51.0809
  },
  {
    "ibgeCityCode": 1700707,
    "cityName": "Alvorada",
    "ibgeStateCode": 17,
    "state": "TO",
    "stateName": "Tocantins",
    "latitude": -12.4785,
    "longitude": -49.1249
  },
  {
    "ibgeCityCode": 1100346,
    "cityName": "Alvorada D'Oeste",
    "ibgeStateCode": 11,
    "state": "RO",
    "stateName": "Rondônia",
    "latitude": -11.3463,
    "longitude": -62.2847
  },
  {
    "ibgeCityCode": 3102407,
    "cityName": "Alvorada de Minas",
    "ibgeStateCode": 31,
    "state": "MG",
    "stateName": "Minas Gerais",
    "latitude": -18.7334,
    "longitude": -43.3638
  },
  {
    "ibgeCityCode": 2200459,
    "cityName": "Alvorada do Gurguéia",
    "ibgeStateCode": 22,
    "state": "PI",
    "stateName": "Piauí",
    "latitude": -8.42418,
    "longitude": -43.777
  },
  {
    "ibgeCityCode": 5200803,
    "cityName": "Alvorada do Norte",
    "ibgeStateCode": 52,
    "state": "GO",
    "stateName": "Goiás",
    "latitude": -14.4797,
    "longitude": -46.491
  },
  {
    "ibgeCityCode": 4100806,
    "cityName": "Alvorada do Sul",
    "ibgeStateCode": 41,
    "state": "PR",
    "stateName": "Paraná",
    "latitude": -22.7813,
    "longitude": -51.2297
  },
  {
    "ibgeCityCode": 1400027,
    "cityName": "Amajari",
    "ibgeStateCode": 14,
    "state": "RR",
    "stateName": "Roraima",
    "latitude": 3.64571,
    "longitude": -61.3692
  },
  {
    "ibgeCityCode": 5000609,
    "cityName": "Amambai",
    "ibgeStateCode": 50,
    "state": "MS",
    "stateName": "Mato Grosso do Sul",
    "latitude": -23.1058,
    "longitude": -55.2253
  },
  {
    "ibgeCityCode": 1600105,
    "cityName": "Amapá",
    "ibgeStateCode": 16,
    "state": "AP",
    "stateName": "Amapá",
    "latitude": 2.05267,
    "longitude": -50.7957
  },
  {
    "ibgeCityCode": 2100550,
    "cityName": "Amapá do Maranhão",
    "ibgeStateCode": 21,
    "state": "MA",
    "stateName": "Maranhão",
    "latitude": -1.67524,
    "longitude": -46.0024
  },
  {
    "ibgeCityCode": 4100905,
    "cityName": "Amaporã",
    "ibgeStateCode": 41,
    "state": "PR",
    "stateName": "Paraná",
    "latitude": -23.0943,
    "longitude": -52.7866
  },
  {
    "ibgeCityCode": 2600906,
    "cityName": "Amaraji",
    "ibgeStateCode": 26,
    "state": "PE",
    "stateName": "Pernambuco",
    "latitude": -8.37691,
    "longitude": -35.4501
  },
  {
    "ibgeCityCode": 4300638,
    "cityName": "Amaral Ferrador",
    "ibgeStateCode": 43,
    "state": "RS",
    "stateName": "Rio Grande do Sul",
    "latitude": -30.8756,
    "longitude": -52.2509
  },
  {
    "ibgeCityCode": 5200829,
    "cityName": "Amaralina",
    "ibgeStateCode": 52,
    "state": "GO",
    "stateName": "Goiás",
    "latitude": -13.9236,
    "longitude": -49.2962
  },
  {
    "ibgeCityCode": 2200509,
    "cityName": "Amarante",
    "ibgeStateCode": 22,
    "state": "PI",
    "stateName": "Piauí",
    "latitude": -6.24304,
    "longitude": -42.8433
  },
  {
    "ibgeCityCode": 2100600,
    "cityName": "Amarante do Maranhão",
    "ibgeStateCode": 21,
    "state": "MA",
    "stateName": "Maranhão",
    "latitude": -5.56913,
    "longitude": -46.7473
  },
  {
    "ibgeCityCode": 2901007,
    "cityName": "Amargosa",
    "ibgeStateCode": 29,
    "state": "BA",
    "stateName": "Bahia",
    "latitude": -13.0215,
    "longitude": -39.602
  },
  {
    "ibgeCityCode": 1300060,
    "cityName": "Amaturá",
    "ibgeStateCode": 13,
    "state": "AM",
    "stateName": "Amazonas",
    "latitude": -3.37455,
    "longitude": -68.2005
  },
  {
    "ibgeCityCode": 2901106,
    "cityName": "Amélia Rodrigues",
    "ibgeStateCode": 29,
    "state": "BA",
    "stateName": "Bahia",
    "latitude": -12.3914,
    "longitude": -38.7563
  },
  {
    "ibgeCityCode": 2901155,
    "cityName": "América Dourada",
    "ibgeStateCode": 29,
    "state": "BA",
    "stateName": "Bahia",
    "latitude": -11.4429,
    "longitude": -41.439
  },
  {
    "ibgeCityCode": 3501608,
    "cityName": "Americana",
    "ibgeStateCode": 35,
    "state": "SP",
    "stateName": "São Paulo",
    "latitude": -22.7374,
    "longitude": -47.3331
  },
  {
    "ibgeCityCode": 5200852,
    "cityName": "Americano do Brasil",
    "ibgeStateCode": 52,
    "state": "GO",
    "stateName": "Goiás",
    "latitude": -16.2514,
    "longitude": -49.9831
  },
  {
    "ibgeCityCode": 3501707,
    "cityName": "Américo Brasiliense",
    "ibgeStateCode": 35,
    "state": "SP",
    "stateName": "São Paulo",
    "latitude": -21.7288,
    "longitude": -48.1147
  },
  {
    "ibgeCityCode": 3501806,
    "cityName": "Américo de Campos",
    "ibgeStateCode": 35,
    "state": "SP",
    "stateName": "São Paulo",
    "latitude": -20.2985,
    "longitude": -49.7359
  },
  {
    "ibgeCityCode": 4300646,
    "cityName": "Ametista do Sul",
    "ibgeStateCode": 43,
    "state": "RS",
    "stateName": "Rio Grande do Sul",
    "latitude": -27.3607,
    "longitude": -53.183
  },
  {
    "ibgeCityCode": 2300754,
    "cityName": "Amontada",
    "ibgeStateCode": 23,
    "state": "CE",
    "stateName": "Ceará",
    "latitude": -3.36017,
    "longitude": -39.8288
  },
  {
    "ibgeCityCode": 5200902,
    "cityName": "Amorinópolis",
    "ibgeStateCode": 52,
    "state": "GO",
    "stateName": "Goiás",
    "latitude": -16.6151,
    "longitude": -51.0919
  },
  {
    "ibgeCityCode": 2500734,
    "cityName": "Amparo",
    "ibgeStateCode": 25,
    "state": "PB",
    "stateName": "Paraíba",
    "latitude": -7.55502,
    "longitude": -37.0628
  },
  {
    "ibgeCityCode": 3501905,
    "cityName": "Amparo",
    "ibgeStateCode": 35,
    "state": "SP",
    "stateName": "São Paulo",
    "latitude": -22.7088,
    "longitude": -46.772
  },
  {
    "ibgeCityCode": 2800100,
    "cityName": "Amparo de São Francisco",
    "ibgeStateCode": 28,
    "state": "SE",
    "stateName": "Sergipe",
    "latitude": -10.1348,
    "longitude": -36.935
  },
  {
    "ibgeCityCode": 3102506,
    "cityName": "Amparo do Serra",
    "ibgeStateCode": 31,
    "state": "MG",
    "stateName": "Minas Gerais",
    "latitude": -20.5051,
    "longitude": -42.8009
  },
  {
    "ibgeCityCode": 4101002,
    "cityName": "Ampére",
    "ibgeStateCode": 41,
    "state": "PR",
    "stateName": "Paraná",
    "latitude": -25.9168,
    "longitude": -53.4686
  },
  {
    "ibgeCityCode": 2700201,
    "cityName": "Anadia",
    "ibgeStateCode": 27,
    "state": "AL",
    "stateName": "Alagoas",
    "latitude": -9.68489,
    "longitude": -36.3078
  },
  {
    "ibgeCityCode": 2901205,
    "cityName": "Anagé",
    "ibgeStateCode": 29,
    "state": "BA",
    "stateName": "Bahia",
    "latitude": -14.6151,
    "longitude": -41.1356
  },
  {
    "ibgeCityCode": 4101051,
    "cityName": "Anahy",
    "ibgeStateCode": 41,
    "state": "PR",
    "stateName": "Paraná",
    "latitude": -24.6449,
    "longitude": -53.1332
  },
  {
    "ibgeCityCode": 1500701,
    "cityName": "Anajás",
    "ibgeStateCode": 15,
    "state": "PA",
    "stateName": "Pará",
    "latitude": -0.996811,
    "longitude": -49.9354
  },
  {
    "ibgeCityCode": 2100709,
    "cityName": "Anajatuba",
    "ibgeStateCode": 21,
    "state": "MA",
    "stateName": "Maranhão",
    "latitude": -3.26269,
    "longitude": -44.6126
  },
  {
    "ibgeCityCode": 3502002,
    "cityName": "Analândia",
    "ibgeStateCode": 35,
    "state": "SP",
    "stateName": "São Paulo",
    "latitude": -22.1289,
    "longitude": -47.6619
  },
  {
    "ibgeCityCode": 1300086,
    "cityName": "Anamã",
    "ibgeStateCode": 13,
    "state": "AM",
    "stateName": "Amazonas",
    "latitude": -3.56697,
    "longitude": -61.3963
  },
  {
    "ibgeCityCode": 1701002,
    "cityName": "Ananás",
    "ibgeStateCode": 17,
    "state": "TO",
    "stateName": "Tocantins",
    "latitude": -6.36437,
    "longitude": -48.0735
  },
  {
    "ibgeCityCode": 1500800,
    "cityName": "Ananindeua",
    "ibgeStateCode": 15,
    "state": "PA",
    "stateName": "Pará",
    "latitude": -1.36391,
    "longitude": -48.3743
  },
  {
    "ibgeCityCode": 5201108,
    "cityName": "Anápolis",
    "ibgeStateCode": 52,
    "state": "GO",
    "stateName": "Goiás",
    "latitude": -16.3281,
    "longitude": -48.953
  },
  {
    "ibgeCityCode": 1500859,
    "cityName": "Anapu",
    "ibgeStateCode": 15,
    "state": "PA",
    "stateName": "Pará",
    "latitude": -3.46985,
    "longitude": -51.2003
  },
  {
    "ibgeCityCode": 2100808,
    "cityName": "Anapurus",
    "ibgeStateCode": 21,
    "state": "MA",
    "stateName": "Maranhão",
    "latitude": -3.67577,
    "longitude": -43.1014
  },
  {
    "ibgeCityCode": 5000708,
    "cityName": "Anastácio",
    "ibgeStateCode": 50,
    "state": "MS",
    "stateName": "Mato Grosso do Sul",
    "latitude": -20.4823,
    "longitude": -55.8104
  },
  {
    "ibgeCityCode": 5000807,
    "cityName": "Anaurilândia",
    "ibgeStateCode": 50,
    "state": "MS",
    "stateName": "Mato Grosso do Sul",
    "latitude": -22.1852,
    "longitude": -52.7191
  },
  {
    "ibgeCityCode": 3200409,
    "cityName": "Anchieta",
    "ibgeStateCode": 32,
    "state": "ES",
    "stateName": "Espírito Santo",
    "latitude": -20.7955,
    "longitude": -40.6425
  },
  {
    "ibgeCityCode": 4200804,
    "cityName": "Anchieta",
    "ibgeStateCode": 42,
    "state": "SC",
    "stateName": "Santa Catarina",
    "latitude": -26.5382,
    "longitude": -53.3319
  },
  {
    "ibgeCityCode": 2901304,
    "cityName": "Andaraí",
    "ibgeStateCode": 29,
    "state": "BA",
    "stateName": "Bahia",
    "latitude": -12.8049,
    "longitude": -41.3297
  },
  {
    "ibgeCityCode": 4101101,
    "cityName": "Andirá",
    "ibgeStateCode": 41,
    "state": "PR",
    "stateName": "Paraná",
    "latitude": -23.0533,
    "longitude": -50.2304
  },
  {
    "ibgeCityCode": 2901353,
    "cityName": "Andorinha",
    "ibgeStateCode": 29,
    "state": "BA",
    "stateName": "Bahia",
    "latitude": -10.3482,
    "longitude": -39.8391
  },
  {
    "ibgeCityCode": 3102605,
    "cityName": "Andradas",
    "ibgeStateCode": 31,
    "state": "MG",
    "stateName": "Minas Gerais",
    "latitude": -22.0695,
    "longitude": -46.5724
  },
  {
    "ibgeCityCode": 3502101,
    "cityName": "Andradina",
    "ibgeStateCode": 35,
    "state": "SP",
    "stateName": "São Paulo",
    "latitude": -20.8948,
    "longitude": -51.3786
  },
  {
    "ibgeCityCode": 4300661,
    "cityName": "André da Rocha",
    "ibgeStateCode": 43,
    "state": "RS",
    "stateName": "Rio Grande do Sul",
    "latitude": -28.6283,
    "longitude": -51.5797
  },
  {
    "ibgeCityCode": 3102803,
    "cityName": "Andrelândia",
    "ibgeStateCode": 31,
    "state": "MG",
    "stateName": "Minas Gerais",
    "latitude": -21.7411,
    "longitude": -44.3117
  },
  {
    "ibgeCityCode": 3502200,
    "cityName": "Angatuba",
    "ibgeStateCode": 35,
    "state": "SP",
    "stateName": "São Paulo",
    "latitude": -23.4917,
    "longitude": -48.4139
  },
  {
    "ibgeCityCode": 3102852,
    "cityName": "Angelândia",
    "ibgeStateCode": 31,
    "state": "MG",
    "stateName": "Minas Gerais",
    "latitude": -17.7279,
    "longitude": -42.2641
  },
  {
    "ibgeCityCode": 5000856,
    "cityName": "Angélica",
    "ibgeStateCode": 50,
    "state": "MS",
    "stateName": "Mato Grosso do Sul",
    "latitude": -22.1527,
    "longitude": -53.7708
  },
  {
    "ibgeCityCode": 2601003,
    "cityName": "Angelim",
    "ibgeStateCode": 26,
    "state": "PE",
    "stateName": "Pernambuco",
    "latitude": -8.88429,
    "longitude": -36.2902
  },
  {
    "ibgeCityCode": 4200903,
    "cityName": "Angelina",
    "ibgeStateCode": 42,
    "state": "SC",
    "stateName": "Santa Catarina",
    "latitude": -27.5704,
    "longitude": -48.9879
  },
  {
    "ibgeCityCode": 2901403,
    "cityName": "Angical",
    "ibgeStateCode": 29,
    "state": "BA",
    "stateName": "Bahia",
    "latitude": -12.0063,
    "longitude": -44.7003
  },
  {
    "ibgeCityCode": 2200608,
    "cityName": "Angical do Piauí",
    "ibgeStateCode": 22,
    "state": "PI",
    "stateName": "Piauí",
    "latitude": -6.08786,
    "longitude": -42.74
  },
  {
    "ibgeCityCode": 1701051,
    "cityName": "Angico",
    "ibgeStateCode": 17,
    "state": "TO",
    "stateName": "Tocantins",
    "latitude": -6.39179,
    "longitude": -47.8611
  },
  {
    "ibgeCityCode": 2400802,
    "cityName": "Angicos",
    "ibgeStateCode": 24,
    "state": "RN",
    "stateName": "Rio Grande do Norte",
    "latitude": -5.65792,
    "longitude": -36.6094
  },
  {
    "ibgeCityCode": 3300100,
    "cityName": "Angra dos Reis",
    "ibgeStateCode": 33,
    "state": "RJ",
    "stateName": "Rio de Janeiro",
    "latitude": -23.0011,
    "longitude": -44.3196
  },
  {
    "ibgeCityCode": 2901502,
    "cityName": "Anguera",
    "ibgeStateCode": 29,
    "state": "BA",
    "stateName": "Bahia",
    "latitude": -12.1462,
    "longitude": -39.2462
  },
  {
    "ibgeCityCode": 4101150,
    "cityName": "Ângulo",
    "ibgeStateCode": 41,
    "state": "PR",
    "stateName": "Paraná",
    "latitude": -23.1946,
    "longitude": -51.9154
  },
  {
    "ibgeCityCode": 5201207,
    "cityName": "Anhanguera",
    "ibgeStateCode": 52,
    "state": "GO",
    "stateName": "Goiás",
    "latitude": -18.3339,
    "longitude": -48.2204
  },
  {
    "ibgeCityCode": 3502309,
    "cityName": "Anhembi",
    "ibgeStateCode": 35,
    "state": "SP",
    "stateName": "São Paulo",
    "latitude": -22.793,
    "longitude": -48.1336
  },
  {
    "ibgeCityCode": 3502408,
    "cityName": "Anhumas",
    "ibgeStateCode": 35,
    "state": "SP",
    "stateName": "São Paulo",
    "latitude": -22.2934,
    "longitude": -51.3895
  },
  {
    "ibgeCityCode": 5201306,
    "cityName": "Anicuns",
    "ibgeStateCode": 52,
    "state": "GO",
    "stateName": "Goiás",
    "latitude": -16.4642,
    "longitude": -49.9617
  },
  {
    "ibgeCityCode": 2200707,
    "cityName": "Anísio de Abreu",
    "ibgeStateCode": 22,
    "state": "PI",
    "stateName": "Piauí",
    "latitude": -9.18564,
    "longitude": -43.0494
  },
  {
    "ibgeCityCode": 4201000,
    "cityName": "Anita Garibaldi",
    "ibgeStateCode": 42,
    "state": "SC",
    "stateName": "Santa Catarina",
    "latitude": -27.6897,
    "longitude": -51.1271
  },
  {
    "ibgeCityCode": 4201109,
    "cityName": "Anitápolis",
    "ibgeStateCode": 42,
    "state": "SC",
    "stateName": "Santa Catarina",
    "latitude": -27.9012,
    "longitude": -49.1316
  },
  {
    "ibgeCityCode": 1300102,
    "cityName": "Anori",
    "ibgeStateCode": 13,
    "state": "AM",
    "stateName": "Amazonas",
    "latitude": -3.74603,
    "longitude": -61.6575
  },
  {
    "ibgeCityCode": 4300703,
    "cityName": "Anta Gorda",
    "ibgeStateCode": 43,
    "state": "RS",
    "stateName": "Rio Grande do Sul",
    "latitude": -28.9698,
    "longitude": -52.0102
  },
  {
    "ibgeCityCode": 2901601,
    "cityName": "Antas",
    "ibgeStateCode": 29,
    "state": "BA",
    "stateName": "Bahia",
    "latitude": -10.3856,
    "longitude": -38.3401
  },
  {
    "ibgeCityCode": 4101200,
    "cityName": "Antonina",
    "ibgeStateCode": 41,
    "state": "PR",
    "stateName": "Paraná",
    "latitude": -25.4386,
    "longitude": -48.7191
  },
  {
    "ibgeCityCode": 2300804,
    "cityName": "Antonina do Norte",
    "ibgeStateCode": 23,
    "state": "CE",
    "stateName": "Ceará",
    "latitude": -6.76919,
    "longitude": -39.987
  },
  {
    "ibgeCityCode": 2200806,
    "cityName": "Antônio Almeida",
    "ibgeStateCode": 22,
    "state": "PI",
    "stateName": "Piauí",
    "latitude": -7.21276,
    "longitude": -44.1889
  },
  {
    "ibgeCityCode": 2901700,
    "cityName": "Antônio Cardoso",
    "ibgeStateCode": 29,
    "state": "BA",
    "stateName": "Bahia",
    "latitude": -12.4335,
    "longitude": -39.1176
  },
  {
    "ibgeCityCode": 4201208,
    "cityName": "Antônio Carlos",
    "ibgeStateCode": 42,
    "state": "SC",
    "stateName": "Santa Catarina",
    "latitude": -27.5191,
    "longitude": -48.766
  },
  {
    "ibgeCityCode": 3102902,
    "cityName": "Antônio Carlos",
    "ibgeStateCode": 31,
    "state": "MG",
    "stateName": "Minas Gerais",
    "latitude": -21.321,
    "longitude": -43.7451
  },
  {
    "ibgeCityCode": 3103009,
    "cityName": "Antônio Dias",
    "ibgeStateCode": 31,
    "state": "MG",
    "stateName": "Minas Gerais",
    "latitude": -19.6491,
    "longitude": -42.8732
  },
  {
    "ibgeCityCode": 2901809,
    "cityName": "Antônio Gonçalves",
    "ibgeStateCode": 29,
    "state": "BA",
    "stateName": "Bahia",
    "latitude": -10.5767,
    "longitude": -40.2785
  },
  {
    "ibgeCityCode": 5000906,
    "cityName": "Antônio João",
    "ibgeStateCode": 50,
    "state": "MS",
    "stateName": "Mato Grosso do Sul",
    "latitude": -22.1927,
    "longitude": -55.9517
  },
  {
    "ibgeCityCode": 2400901,
    "cityName": "Antônio Martins",
    "ibgeStateCode": 24,
    "state": "RN",
    "stateName": "Rio Grande do Norte",
    "latitude": -6.21367,
    "longitude": -37.8834
  },
  {
    "ibgeCityCode": 4101309,
    "cityName": "Antônio Olinto",
    "ibgeStateCode": 41,
    "state": "PR",
    "stateName": "Paraná",
    "latitude": -25.9804,
    "longitude": -50.1972
  },
  {
    "ibgeCityCode": 4300802,
    "cityName": "Antônio Prado",
    "ibgeStateCode": 43,
    "state": "RS",
    "stateName": "Rio Grande do Sul",
    "latitude": -28.8565,
    "longitude": -51.2883
  },
  {
    "ibgeCityCode": 3103108,
    "cityName": "Antônio Prado de Minas",
    "ibgeStateCode": 31,
    "state": "MG",
    "stateName": "Minas Gerais",
    "latitude": -21.0192,
    "longitude": -42.1109
  },
  {
    "ibgeCityCode": 3502507,
    "cityName": "Aparecida",
    "ibgeStateCode": 35,
    "state": "SP",
    "stateName": "São Paulo",
    "latitude": -22.8495,
    "longitude": -45.2325
  },
  {
    "ibgeCityCode": 2500775,
    "cityName": "Aparecida",
    "ibgeStateCode": 25,
    "state": "PB",
    "stateName": "Paraíba",
    "latitude": -6.78466,
    "longitude": -38.0803
  },
  {
    "ibgeCityCode": 3502606,
    "cityName": "Aparecida d'Oeste",
    "ibgeStateCode": 35,
    "state": "SP",
    "stateName": "São Paulo",
    "latitude": -20.4487,
    "longitude": -50.8835
  },
  {
    "ibgeCityCode": 5201405,
    "cityName": "Aparecida de Goiânia",
    "ibgeStateCode": 52,
    "state": "GO",
    "stateName": "Goiás",
    "latitude": -16.8198,
    "longitude": -49.2469
  },
  {
    "ibgeCityCode": 5201454,
    "cityName": "Aparecida do Rio Doce",
    "ibgeStateCode": 52,
    "state": "GO",
    "stateName": "Goiás",
    "latitude": -18.2941,
    "longitude": -51.1516
  },
  {
    "ibgeCityCode": 1701101,
    "cityName": "Aparecida do Rio Negro",
    "ibgeStateCode": 17,
    "state": "TO",
    "stateName": "Tocantins",
    "latitude": -9.94139,
    "longitude": -47.9638
  },
  {
    "ibgeCityCode": 5001003,
    "cityName": "Aparecida do Taboado",
    "ibgeStateCode": 50,
    "state": "MS",
    "stateName": "Mato Grosso do Sul",
    "latitude": -20.0873,
    "longitude": -51.0961
  },
  {
    "ibgeCityCode": 3300159,
    "cityName": "Aperibé",
    "ibgeStateCode": 33,
    "state": "RJ",
    "stateName": "Rio de Janeiro",
    "latitude": -21.6252,
    "longitude": -42.1017
  },
  {
    "ibgeCityCode": 3200508,
    "cityName": "Apiacá",
    "ibgeStateCode": 32,
    "state": "ES",
    "stateName": "Espírito Santo",
    "latitude": -21.1523,
    "longitude": -41.5693
  },
  {
    "ibgeCityCode": 5100805,
    "cityName": "Apiacás",
    "ibgeStateCode": 51,
    "state": "MT",
    "stateName": "Mato Grosso",
    "latitude": -9.53981,
    "longitude": -57.4587
  },
  {
    "ibgeCityCode": 3502705,
    "cityName": "Apiaí",
    "ibgeStateCode": 35,
    "state": "SP",
    "stateName": "São Paulo",
    "latitude": -24.5108,
    "longitude": -48.8443
  },
  {
    "ibgeCityCode": 2100832,
    "cityName": "Apicum-Açu",
    "ibgeStateCode": 21,
    "state": "MA",
    "stateName": "Maranhão",
    "latitude": -1.45862,
    "longitude": -45.0864
  },
  {
    "ibgeCityCode": 4201257,
    "cityName": "Apiúna",
    "ibgeStateCode": 42,
    "state": "SC",
    "stateName": "Santa Catarina",
    "latitude": -27.0375,
    "longitude": -49.3885
  },
  {
    "ibgeCityCode": 2401008,
    "cityName": "Apodi",
    "ibgeStateCode": 24,
    "state": "RN",
    "stateName": "Rio Grande do Norte",
    "latitude": -5.65349,
    "longitude": -37.7946
  },
  {
    "ibgeCityCode": 2901908,
    "cityName": "Aporá",
    "ibgeStateCode": 29,
    "state": "BA",
    "stateName": "Bahia",
    "latitude": -11.6577,
    "longitude": -38.0814
  },
  {
    "ibgeCityCode": 5201504,
    "cityName": "Aporé",
    "ibgeStateCode": 52,
    "state": "GO",
    "stateName": "Goiás",
    "latitude": -18.9607,
    "longitude": -51.9232
  },
  {
    "ibgeCityCode": 2901957,
    "cityName": "Apuarema",
    "ibgeStateCode": 29,
    "state": "BA",
    "stateName": "Bahia",
    "latitude": -13.8542,
    "longitude": -39.7501
  },
  {
    "ibgeCityCode": 4101408,
    "cityName": "Apucarana",
    "ibgeStateCode": 41,
    "state": "PR",
    "stateName": "Paraná",
    "latitude": -23.55,
    "longitude": -51.4635
  },
  {
    "ibgeCityCode": 1300144,
    "cityName": "Apuí",
    "ibgeStateCode": 13,
    "state": "AM",
    "stateName": "Amazonas",
    "latitude": -7.19409,
    "longitude": -59.896
  },
  {
    "ibgeCityCode": 2300903,
    "cityName": "Apuiarés",
    "ibgeStateCode": 23,
    "state": "CE",
    "stateName": "Ceará",
    "latitude": -3.94506,
    "longitude": -39.4359
  },
  {
    "ibgeCityCode": 2800209,
    "cityName": "Aquidabã",
    "ibgeStateCode": 28,
    "state": "SE",
    "stateName": "Sergipe",
    "latitude": -10.278,
    "longitude": -37.0148
  },
  {
    "ibgeCityCode": 5001102,
    "cityName": "Aquidauana",
    "ibgeStateCode": 50,
    "state": "MS",
    "stateName": "Mato Grosso do Sul",
    "latitude": -20.4666,
    "longitude": -55.7868
  },
  {
    "ibgeCityCode": 2301000,
    "cityName": "Aquiraz",
    "ibgeStateCode": 23,
    "state": "CE",
    "stateName": "Ceará",
    "latitude": -3.89929,
    "longitude": -38.3896
  },
  {
    "ibgeCityCode": 4201273,
    "cityName": "Arabutã",
    "ibgeStateCode": 42,
    "state": "SC",
    "stateName": "Santa Catarina",
    "latitude": -27.1587,
    "longitude": -52.1423
  },
  {
    "ibgeCityCode": 2500809,
    "cityName": "Araçagi",
    "ibgeStateCode": 25,
    "state": "PB",
    "stateName": "Paraíba",
    "latitude": -6.84374,
    "longitude": -35.3737
  },
  {
    "ibgeCityCode": 3103207,
    "cityName": "Araçaí",
    "ibgeStateCode": 31,
    "state": "MG",
    "stateName": "Minas Gerais",
    "latitude": -19.1955,
    "longitude": -44.2493
  },
  {
    "ibgeCityCode": 2800308,
    "cityName": "Aracaju",
    "ibgeStateCode": 28,
    "state": "SE",
    "stateName": "Sergipe",
    "latitude": -10.9091,
    "longitude": -37.0677
  },
  {
    "ibgeCityCode": 3502754,
    "cityName": "Araçariguama",
    "ibgeStateCode": 35,
    "state": "SP",
    "stateName": "São Paulo",
    "latitude": -23.4366,
    "longitude": -47.0608
  },
  {
    "ibgeCityCode": 2902054,
    "cityName": "Araças",
    "ibgeStateCode": 29,
    "state": "BA",
    "stateName": "Bahia",
    "latitude": -12.22,
    "longitude": -38.2027
  },
  {
    "ibgeCityCode": 2301109,
    "cityName": "Aracati",
    "ibgeStateCode": 23,
    "state": "CE",
    "stateName": "Ceará",
    "latitude": -4.55826,
    "longitude": -37.7679
  },
  {
    "ibgeCityCode": 2902005,
    "cityName": "Aracatu",
    "ibgeStateCode": 29,
    "state": "BA",
    "stateName": "Bahia",
    "latitude": -14.428,
    "longitude": -41.4648
  },
  {
    "ibgeCityCode": 3502804,
    "cityName": "Araçatuba",
    "ibgeStateCode": 35,
    "state": "SP",
    "stateName": "São Paulo",
    "latitude": -21.2076,
    "longitude": -50.4401
  },
  {
    "ibgeCityCode": 2902104,
    "cityName": "Araci",
    "ibgeStateCode": 29,
    "state": "BA",
    "stateName": "Bahia",
    "latitude": -11.3253,
    "longitude": -38.9584
  },
  {
    "ibgeCityCode": 3103306,
    "cityName": "Aracitaba",
    "ibgeStateCode": 31,
    "state": "MG",
    "stateName": "Minas Gerais",
    "latitude": -21.3446,
    "longitude": -43.3736
  },
  {
    "ibgeCityCode": 2601052,
    "cityName": "Araçoiaba",
    "ibgeStateCode": 26,
    "state": "PE",
    "stateName": "Pernambuco",
    "latitude": -7.78391,
    "longitude": -35.0809
  },
  {
    "ibgeCityCode": 2301208,
    "cityName": "Aracoiaba",
    "ibgeStateCode": 23,
    "state": "CE",
    "stateName": "Ceará",
    "latitude": -4.36872,
    "longitude": -38.8125
  },
  {
    "ibgeCityCode": 3502903,
    "cityName": "Araçoiaba da Serra",
    "ibgeStateCode": 35,
    "state": "SP",
    "stateName": "São Paulo",
    "latitude": -23.5029,
    "longitude": -47.6166
  },
  {
    "ibgeCityCode": 3200607,
    "cityName": "Aracruz",
    "ibgeStateCode": 32,
    "state": "ES",
    "stateName": "Espírito Santo",
    "latitude": -19.82,
    "longitude": -40.2764
  },
  {
    "ibgeCityCode": 5201603,
    "cityName": "Araçu",
    "ibgeStateCode": 52,
    "state": "GO",
    "stateName": "Goiás",
    "latitude": -16.3563,
    "longitude": -49.6804
  },
  {
    "ibgeCityCode": 3103405,
    "cityName": "Araçuaí",
    "ibgeStateCode": 31,
    "state": "MG",
    "stateName": "Minas Gerais",
    "latitude": -16.8523,
    "longitude": -42.0637
  },
  {
    "ibgeCityCode": 5201702,
    "cityName": "Aragarças",
    "ibgeStateCode": 52,
    "state": "GO",
    "stateName": "Goiás",
    "latitude": -15.8955,
    "longitude": -52.2372
  },
  {
    "ibgeCityCode": 5201801,
    "cityName": "Aragoiânia",
    "ibgeStateCode": 52,
    "state": "GO",
    "stateName": "Goiás",
    "latitude": -16.9087,
    "longitude": -49.4476
  },
  {
    "ibgeCityCode": 1701309,
    "cityName": "Aragominas",
    "ibgeStateCode": 17,
    "state": "TO",
    "stateName": "Tocantins",
    "latitude": -7.16005,
    "longitude": -48.5291
  },
  {
    "ibgeCityCode": 1701903,
    "cityName": "Araguacema",
    "ibgeStateCode": 17,
    "state": "TO",
    "stateName": "Tocantins",
    "latitude": -8.80755,
    "longitude": -49.5569
  },
  {
    "ibgeCityCode": 1702000,
    "cityName": "Araguaçu",
    "ibgeStateCode": 17,
    "state": "TO",
    "stateName": "Tocantins",
    "latitude": -12.9289,
    "longitude": -49.8231
  },
  {
    "ibgeCityCode": 5101001,
    "cityName": "Araguaiana",
    "ibgeStateCode": 51,
    "state": "MT",
    "stateName": "Mato Grosso",
    "latitude": -15.7291,
    "longitude": -51.8341
  },
  {
    "ibgeCityCode": 1702109,
    "cityName": "Araguaína",
    "ibgeStateCode": 17,
    "state": "TO",
    "stateName": "Tocantins",
    "latitude": -7.19238,
    "longitude": -48.2044
  },
  {
    "ibgeCityCode": 5101209,
    "cityName": "Araguainha",
    "ibgeStateCode": 51,
    "state": "MT",
    "stateName": "Mato Grosso",
    "latitude": -16.857,
    "longitude": -53.0318
  },
  {
    "ibgeCityCode": 2100873,
    "cityName": "Araguanã",
    "ibgeStateCode": 21,
    "state": "MA",
    "stateName": "Maranhão",
    "latitude": -2.94644,
    "longitude": -45.6589
  },
  {
    "ibgeCityCode": 1702158,
    "cityName": "Araguanã",
    "ibgeStateCode": 17,
    "state": "TO",
    "stateName": "Tocantins",
    "latitude": -6.58225,
    "longitude": -48.6395
  },
  {
    "ibgeCityCode": 5202155,
    "cityName": "Araguapaz",
    "ibgeStateCode": 52,
    "state": "GO",
    "stateName": "Goiás",
    "latitude": -15.0909,
    "longitude": -50.6315
  },
  {
    "ibgeCityCode": 3103504,
    "cityName": "Araguari",
    "ibgeStateCode": 31,
    "state": "MG",
    "stateName": "Minas Gerais",
    "latitude": -18.6456,
    "longitude": -48.1934
  },
  {
    "ibgeCityCode": 1702208,
    "cityName": "Araguatins",
    "ibgeStateCode": 17,
    "state": "TO",
    "stateName": "Tocantins",
    "latitude": -5.64659,
    "longitude": -48.1232
  },
  {
    "ibgeCityCode": 2100907,
    "cityName": "Araioses",
    "ibgeStateCode": 21,
    "state": "MA",
    "stateName": "Maranhão",
    "latitude": -2.89091,
    "longitude": -41.905
  },
  {
    "ibgeCityCode": 5001243,
    "cityName": "Aral Moreira",
    "ibgeStateCode": 50,
    "state": "MS",
    "stateName": "Mato Grosso do Sul",
    "latitude": -22.9385,
    "longitude": -55.6334
  },
  {
    "ibgeCityCode": 2902203,
    "cityName": "Aramari",
    "ibgeStateCode": 29,
    "state": "BA",
    "stateName": "Bahia",
    "latitude": -12.0884,
    "longitude": -38.4969
  },
  {
    "ibgeCityCode": 4300851,
    "cityName": "Arambaré",
    "ibgeStateCode": 43,
    "state": "RS",
    "stateName": "Rio Grande do Sul",
    "latitude": -30.9092,
    "longitude": -51.5046
  },
  {
    "ibgeCityCode": 2100956,
    "cityName": "Arame",
    "ibgeStateCode": 21,
    "state": "MA",
    "stateName": "Maranhão",
    "latitude": -4.88347,
    "longitude": -46.0032
  },
  {
    "ibgeCityCode": 3503000,
    "cityName": "Aramina",
    "ibgeStateCode": 35,
    "state": "SP",
    "stateName": "São Paulo",
    "latitude": -20.0882,
    "longitude": -47.7873
  },
  {
    "ibgeCityCode": 3503109,
    "cityName": "Arandu",
    "ibgeStateCode": 35,
    "state": "SP",
    "stateName": "São Paulo",
    "latitude": -23.1386,
    "longitude": -49.0487
  },
  {
    "ibgeCityCode": 3103603,
    "cityName": "Arantina",
    "ibgeStateCode": 31,
    "state": "MG",
    "stateName": "Minas Gerais",
    "latitude": -21.9102,
    "longitude": -44.2555
  },
  {
    "ibgeCityCode": 3503158,
    "cityName": "Arapeí",
    "ibgeStateCode": 35,
    "state": "SP",
    "stateName": "São Paulo",
    "latitude": -22.6717,
    "longitude": -44.4441
  },
  {
    "ibgeCityCode": 2700300,
    "cityName": "Arapiraca",
    "ibgeStateCode": 27,
    "state": "AL",
    "stateName": "Alagoas",
    "latitude": -9.75487,
    "longitude": -36.6615
  },
  {
    "ibgeCityCode": 1702307,
    "cityName": "Arapoema",
    "ibgeStateCode": 17,
    "state": "TO",
    "stateName": "Tocantins",
    "latitude": -7.65463,
    "longitude": -49.0637
  },
  {
    "ibgeCityCode": 3103702,
    "cityName": "Araponga",
    "ibgeStateCode": 31,
    "state": "MG",
    "stateName": "Minas Gerais",
    "latitude": -20.6686,
    "longitude": -42.5178
  },
  {
    "ibgeCityCode": 4101507,
    "cityName": "Arapongas",
    "ibgeStateCode": 41,
    "state": "PR",
    "stateName": "Paraná",
    "latitude": -23.4153,
    "longitude": -51.4259
  },
  {
    "ibgeCityCode": 3103751,
    "cityName": "Araporã",
    "ibgeStateCode": 31,
    "state": "MG",
    "stateName": "Minas Gerais",
    "latitude": -18.4357,
    "longitude": -49.1847
  },
  {
    "ibgeCityCode": 4101606,
    "cityName": "Arapoti",
    "ibgeStateCode": 41,
    "state": "PR",
    "stateName": "Paraná",
    "latitude": -24.1548,
    "longitude": -49.8285
  },
  {
    "ibgeCityCode": 4101655,
    "cityName": "Arapuã",
    "ibgeStateCode": 41,
    "state": "PR",
    "stateName": "Paraná",
    "latitude": -24.3132,
    "longitude": -51.7856
  },
  {
    "ibgeCityCode": 3103801,
    "cityName": "Arapuá",
    "ibgeStateCode": 31,
    "state": "MG",
    "stateName": "Minas Gerais",
    "latitude": -19.0268,
    "longitude": -46.1484
  },
  {
    "ibgeCityCode": 5101258,
    "cityName": "Araputanga",
    "ibgeStateCode": 51,
    "state": "MT",
    "stateName": "Mato Grosso",
    "latitude": -15.4641,
    "longitude": -58.3425
  },
  {
    "ibgeCityCode": 4201307,
    "cityName": "Araquari",
    "ibgeStateCode": 42,
    "state": "SC",
    "stateName": "Santa Catarina",
    "latitude": -26.3754,
    "longitude": -48.7188
  },
  {
    "ibgeCityCode": 2500908,
    "cityName": "Arara",
    "ibgeStateCode": 25,
    "state": "PB",
    "stateName": "Paraíba",
    "latitude": -6.82813,
    "longitude": -35.7552
  },
  {
    "ibgeCityCode": 4201406,
    "cityName": "Araranguá",
    "ibgeStateCode": 42,
    "state": "SC",
    "stateName": "Santa Catarina",
    "latitude": -28.9356,
    "longitude": -49.4918
  },
  {
    "ibgeCityCode": 3503208,
    "cityName": "Araraquara",
    "ibgeStateCode": 35,
    "state": "SP",
    "stateName": "São Paulo",
    "latitude": -21.7845,
    "longitude": -48.178
  },
  {
    "ibgeCityCode": 3503307,
    "cityName": "Araras",
    "ibgeStateCode": 35,
    "state": "SP",
    "stateName": "São Paulo",
    "latitude": -22.3572,
    "longitude": -47.3842
  },
  {
    "ibgeCityCode": 2301257,
    "cityName": "Ararendá",
    "ibgeStateCode": 23,
    "state": "CE",
    "stateName": "Ceará",
    "latitude": -4.74567,
    "longitude": -40.831
  },
  {
    "ibgeCityCode": 2101004,
    "cityName": "Arari",
    "ibgeStateCode": 21,
    "state": "MA",
    "stateName": "Maranhão",
    "latitude": -3.45214,
    "longitude": -44.7665
  },
  {
    "ibgeCityCode": 4300877,
    "cityName": "Araricá",
    "ibgeStateCode": 43,
    "state": "RS",
    "stateName": "Rio Grande do Sul",
    "latitude": -29.6168,
    "longitude": -50.9291
  },
  {
    "ibgeCityCode": 2301307,
    "cityName": "Araripe",
    "ibgeStateCode": 23,
    "state": "CE",
    "stateName": "Ceará",
    "latitude": -7.21319,
    "longitude": -40.1359
  },
  {
    "ibgeCityCode": 2601102,
    "cityName": "Araripina",
    "ibgeStateCode": 26,
    "state": "PE",
    "stateName": "Pernambuco",
    "latitude": -7.57073,
    "longitude": -40.494
  },
  {
    "ibgeCityCode": 3300209,
    "cityName": "Araruama",
    "ibgeStateCode": 33,
    "state": "RJ",
    "stateName": "Rio de Janeiro",
    "latitude": -22.8697,
    "longitude": -42.3326
  },
  {
    "ibgeCityCode": 2501005,
    "cityName": "Araruna",
    "ibgeStateCode": 25,
    "state": "PB",
    "stateName": "Paraíba",
    "latitude": -6.54848,
    "longitude": -35.7498
  },
  {
    "ibgeCityCode": 4101705,
    "cityName": "Araruna",
    "ibgeStateCode": 41,
    "state": "PR",
    "stateName": "Paraná",
    "latitude": -23.9315,
    "longitude": -52.5021
  },
  {
    "ibgeCityCode": 2902252,
    "cityName": "Arataca",
    "ibgeStateCode": 29,
    "state": "BA",
    "stateName": "Bahia",
    "latitude": -15.2651,
    "longitude": -39.419
  },
  {
    "ibgeCityCode": 4300901,
    "cityName": "Aratiba",
    "ibgeStateCode": 43,
    "state": "RS",
    "stateName": "Rio Grande do Sul",
    "latitude": -27.3978,
    "longitude": -52.2975
  },
  {
    "ibgeCityCode": 2301406,
    "cityName": "Aratuba",
    "ibgeStateCode": 23,
    "state": "CE",
    "stateName": "Ceará",
    "latitude": -4.41229,
    "longitude": -39.0471
  },
  {
    "ibgeCityCode": 2902302,
    "cityName": "Aratuípe",
    "ibgeStateCode": 29,
    "state": "BA",
    "stateName": "Bahia",
    "latitude": -13.0716,
    "longitude": -39.0038
  },
  {
    "ibgeCityCode": 2800407,
    "cityName": "Arauá",
    "ibgeStateCode": 28,
    "state": "SE",
    "stateName": "Sergipe",
    "latitude": -11.2614,
    "longitude": -37.6201
  },
  {
    "ibgeCityCode": 4101804,
    "cityName": "Araucária",
    "ibgeStateCode": 41,
    "state": "PR",
    "stateName": "Paraná",
    "latitude": -25.5859,
    "longitude": -49.4047
  },
  {
    "ibgeCityCode": 3103900,
    "cityName": "Araújos",
    "ibgeStateCode": 31,
    "state": "MG",
    "stateName": "Minas Gerais",
    "latitude": -19.9405,
    "longitude": -45.1671
  },
  {
    "ibgeCityCode": 3104007,
    "cityName": "Araxá",
    "ibgeStateCode": 31,
    "state": "MG",
    "stateName": "Minas Gerais",
    "latitude": -19.5902,
    "longitude": -46.9438
  },
  {
    "ibgeCityCode": 3104106,
    "cityName": "Arceburgo",
    "ibgeStateCode": 31,
    "state": "MG",
    "stateName": "Minas Gerais",
    "latitude": -21.359,
    "longitude": -46.9401
  },
  {
    "ibgeCityCode": 3503356,
    "cityName": "Arco-Íris",
    "ibgeStateCode": 35,
    "state": "SP",
    "stateName": "São Paulo",
    "latitude": -21.7728,
    "longitude": -50.466
  },
  {
    "ibgeCityCode": 3104205,
    "cityName": "Arcos",
    "ibgeStateCode": 31,
    "state": "MG",
    "stateName": "Minas Gerais",
    "latitude": -20.2863,
    "longitude": -45.5373
  },
  {
    "ibgeCityCode": 2601201,
    "cityName": "Arcoverde",
    "ibgeStateCode": 26,
    "state": "PE",
    "stateName": "Pernambuco",
    "latitude": -8.41519,
    "longitude": -37.0577
  },
  {
    "ibgeCityCode": 3104304,
    "cityName": "Areado",
    "ibgeStateCode": 31,
    "state": "MG",
    "stateName": "Minas Gerais",
    "latitude": -21.3572,
    "longitude": -46.1421
  },
  {
    "ibgeCityCode": 3300225,
    "cityName": "Areal",
    "ibgeStateCode": 33,
    "state": "RJ",
    "stateName": "Rio de Janeiro",
    "latitude": -22.2283,
    "longitude": -43.1118
  },
  {
    "ibgeCityCode": 3503406,
    "cityName": "Arealva",
    "ibgeStateCode": 35,
    "state": "SP",
    "stateName": "São Paulo",
    "latitude": -22.031,
    "longitude": -48.9135
  },
  {
    "ibgeCityCode": 2501104,
    "cityName": "Areia",
    "ibgeStateCode": 25,
    "state": "PB",
    "stateName": "Paraíba",
    "latitude": -6.96396,
    "longitude": -35.6977
  },
  {
    "ibgeCityCode": 2401107,
    "cityName": "Areia Branca",
    "ibgeStateCode": 24,
    "state": "RN",
    "stateName": "Rio Grande do Norte",
    "latitude": -4.95254,
    "longitude": -37.1252
  },
  {
    "ibgeCityCode": 2800506,
    "cityName": "Areia Branca",
    "ibgeStateCode": 28,
    "state": "SE",
    "stateName": "Sergipe",
    "latitude": -10.758,
    "longitude": -37.3251
  },
  {
    "ibgeCityCode": 2501153,
    "cityName": "Areia de Baraúnas",
    "ibgeStateCode": 25,
    "state": "PB",
    "stateName": "Paraíba",
    "latitude": -7.11702,
    "longitude": -36.9404
  },
  {
    "ibgeCityCode": 2501203,
    "cityName": "Areial",
    "ibgeStateCode": 25,
    "state": "PB",
    "stateName": "Paraíba",
    "latitude": -7.04789,
    "longitude": -35.9313
  },
  {
    "ibgeCityCode": 3503505,
    "cityName": "Areias",
    "ibgeStateCode": 35,
    "state": "SP",
    "stateName": "São Paulo",
    "latitude": -22.5786,
    "longitude": -44.6992
  },
  {
    "ibgeCityCode": 3503604,
    "cityName": "Areiópolis",
    "ibgeStateCode": 35,
    "state": "SP",
    "stateName": "São Paulo",
    "latitude": -22.6672,
    "longitude": -48.6681
  },
  {
    "ibgeCityCode": 5101308,
    "cityName": "Arenápolis",
    "ibgeStateCode": 51,
    "state": "MT",
    "stateName": "Mato Grosso",
    "latitude": -14.4472,
    "longitude": -56.8437
  },
  {
    "ibgeCityCode": 5202353,
    "cityName": "Arenópolis",
    "ibgeStateCode": 52,
    "state": "GO",
    "stateName": "Goiás",
    "latitude": -16.3837,
    "longitude": -51.5563
  },
  {
    "ibgeCityCode": 2401206,
    "cityName": "Arês",
    "ibgeStateCode": 24,
    "state": "RN",
    "stateName": "Rio Grande do Norte",
    "latitude": -6.18831,
    "longitude": -35.1608
  },
  {
    "ibgeCityCode": 3104403,
    "cityName": "Argirita",
    "ibgeStateCode": 31,
    "state": "MG",
    "stateName": "Minas Gerais",
    "latitude": -21.6083,
    "longitude": -42.8292
  },
  {
    "ibgeCityCode": 3104452,
    "cityName": "Aricanduva",
    "ibgeStateCode": 31,
    "state": "MG",
    "stateName": "Minas Gerais",
    "latitude": -17.8666,
    "longitude": -42.5533
  },
  {
    "ibgeCityCode": 3104502,
    "cityName": "Arinos",
    "ibgeStateCode": 31,
    "state": "MG",
    "stateName": "Minas Gerais",
    "latitude": -15.9187,
    "longitude": -46.1043
  },
  {
    "ibgeCityCode": 5101407,
    "cityName": "Aripuanã",
    "ibgeStateCode": 51,
    "state": "MT",
    "stateName": "Mato Grosso",
    "latitude": -10.1723,
    "longitude": -59.4568
  },
  {
    "ibgeCityCode": 1100023,
    "cityName": "Ariquemes",
    "ibgeStateCode": 11,
    "state": "RO",
    "stateName": "Rondônia",
    "latitude": -9.90571,
    "longitude": -63.0325
  },
  {
    "ibgeCityCode": 3503703,
    "cityName": "Ariranha",
    "ibgeStateCode": 35,
    "state": "SP",
    "stateName": "São Paulo",
    "latitude": -21.1872,
    "longitude": -48.7904
  },
  {
    "ibgeCityCode": 4101853,
    "cityName": "Ariranha do Ivaí",
    "ibgeStateCode": 41,
    "state": "PR",
    "stateName": "Paraná",
    "latitude": -24.3857,
    "longitude": -51.5839
  },
  {
    "ibgeCityCode": 3300233,
    "cityName": "Armação dos Búzios",
    "ibgeStateCode": 33,
    "state": "RJ",
    "stateName": "Rio de Janeiro",
    "latitude": -22.7528,
    "longitude": -41.8846
  },
  {
    "ibgeCityCode": 4201505,
    "cityName": "Armazém",
    "ibgeStateCode": 42,
    "state": "SC",
    "stateName": "Santa Catarina",
    "latitude": -28.2448,
    "longitude": -49.0215
  },
  {
    "ibgeCityCode": 2301505,
    "cityName": "Arneiroz",
    "ibgeStateCode": 23,
    "state": "CE",
    "stateName": "Ceará",
    "latitude": -6.3165,
    "longitude": -40.1653
  },
  {
    "ibgeCityCode": 2200905,
    "cityName": "Aroazes",
    "ibgeStateCode": 22,
    "state": "PI",
    "stateName": "Piauí",
    "latitude": -6.11022,
    "longitude": -41.7822
  },
  {
    "ibgeCityCode": 2501302,
    "cityName": "Aroeiras",
    "ibgeStateCode": 25,
    "state": "PB",
    "stateName": "Paraíba",
    "latitude": -7.54473,
    "longitude": -35.7066
  },
  {
    "ibgeCityCode": 2201002,
    "cityName": "Arraial",
    "ibgeStateCode": 22,
    "state": "PI",
    "stateName": "Piauí",
    "latitude": -6.65075,
    "longitude": -42.5418
  },
  {
    "ibgeCityCode": 3300258,
    "cityName": "Arraial do Cabo",
    "ibgeStateCode": 33,
    "state": "RJ",
    "stateName": "Rio de Janeiro",
    "latitude": -22.9774,
    "longitude": -42.0267
  },
  {
    "ibgeCityCode": 1702406,
    "cityName": "Arraias",
    "ibgeStateCode": 17,
    "state": "TO",
    "stateName": "Tocantins",
    "latitude": -12.9287,
    "longitude": -46.9359
  },
  {
    "ibgeCityCode": 4301008,
    "cityName": "Arroio do Meio",
    "ibgeStateCode": 43,
    "state": "RS",
    "stateName": "Rio Grande do Sul",
    "latitude": -29.4014,
    "longitude": -51.9557
  },
  {
    "ibgeCityCode": 4301073,
    "cityName": "Arroio do Padre",
    "ibgeStateCode": 43,
    "state": "RS",
    "stateName": "Rio Grande do Sul",
    "latitude": -31.4389,
    "longitude": -52.4246
  },
  {
    "ibgeCityCode": 4301057,
    "cityName": "Arroio do Sal",
    "ibgeStateCode": 43,
    "state": "RS",
    "stateName": "Rio Grande do Sul",
    "latitude": -29.5439,
    "longitude": -49.8895
  },
  {
    "ibgeCityCode": 4301206,
    "cityName": "Arroio do Tigre",
    "ibgeStateCode": 43,
    "state": "RS",
    "stateName": "Rio Grande do Sul",
    "latitude": -29.3348,
    "longitude": -53.0966
  },
  {
    "ibgeCityCode": 4301107,
    "cityName": "Arroio dos Ratos",
    "ibgeStateCode": 43,
    "state": "RS",
    "stateName": "Rio Grande do Sul",
    "latitude": -30.0875,
    "longitude": -51.7275
  },
  {
    "ibgeCityCode": 4301305,
    "cityName": "Arroio Grande",
    "ibgeStateCode": 43,
    "state": "RS",
    "stateName": "Rio Grande do Sul",
    "latitude": -32.2327,
    "longitude": -53.0862
  },
  {
    "ibgeCityCode": 4201604,
    "cityName": "Arroio Trinta",
    "ibgeStateCode": 42,
    "state": "SC",
    "stateName": "Santa Catarina",
    "latitude": -26.9257,
    "longitude": -51.3407
  },
  {
    "ibgeCityCode": 3503802,
    "cityName": "Artur Nogueira",
    "ibgeStateCode": 35,
    "state": "SP",
    "stateName": "São Paulo",
    "latitude": -22.5727,
    "longitude": -47.1727
  },
  {
    "ibgeCityCode": 5202502,
    "cityName": "Aruanã",
    "ibgeStateCode": 52,
    "state": "GO",
    "stateName": "Goiás",
    "latitude": -14.9166,
    "longitude": -51.075
  },
  {
    "ibgeCityCode": 3503901,
    "cityName": "Arujá",
    "ibgeStateCode": 35,
    "state": "SP",
    "stateName": "São Paulo",
    "latitude": -23.3965,
    "longitude": -46.32
  },
  {
    "ibgeCityCode": 4201653,
    "cityName": "Arvoredo",
    "ibgeStateCode": 42,
    "state": "SC",
    "stateName": "Santa Catarina",
    "latitude": -27.0748,
    "longitude": -52.4543
  },
  {
    "ibgeCityCode": 4301404,
    "cityName": "Arvorezinha",
    "ibgeStateCode": 43,
    "state": "RS",
    "stateName": "Rio Grande do Sul",
    "latitude": -28.8737,
    "longitude": -52.1781
  },
  {
    "ibgeCityCode": 4201703,
    "cityName": "Ascurra",
    "ibgeStateCode": 42,
    "state": "SC",
    "stateName": "Santa Catarina",
    "latitude": -26.9548,
    "longitude": -49.3783
  },
  {
    "ibgeCityCode": 3503950,
    "cityName": "Aspásia",
    "ibgeStateCode": 35,
    "state": "SP",
    "stateName": "São Paulo",
    "latitude": -20.16,
    "longitude": -50.728
  },
  {
    "ibgeCityCode": 4101903,
    "cityName": "Assaí",
    "ibgeStateCode": 41,
    "state": "PR",
    "stateName": "Paraná",
    "latitude": -23.3697,
    "longitude": -50.8459
  },
  {
    "ibgeCityCode": 2301604,
    "cityName": "Assaré",
    "ibgeStateCode": 23,
    "state": "CE",
    "stateName": "Ceará",
    "latitude": -6.8669,
    "longitude": -39.8689
  },
  {
    "ibgeCityCode": 3504008,
    "cityName": "Assis",
    "ibgeStateCode": 35,
    "state": "SP",
    "stateName": "São Paulo",
    "latitude": -22.66,
    "longitude": -50.4183
  },
  {
    "ibgeCityCode": 1200054,
    "cityName": "Assis Brasil",
    "ibgeStateCode": 12,
    "state": "AC",
    "stateName": "Acre",
    "latitude": -10.9298,
    "longitude": -69.5738
  },
  {
    "ibgeCityCode": 4102000,
    "cityName": "Assis Chateaubriand",
    "ibgeStateCode": 41,
    "state": "PR",
    "stateName": "Paraná",
    "latitude": -24.4168,
    "longitude": -53.5213
  },
  {
    "ibgeCityCode": 2501351,
    "cityName": "Assunção",
    "ibgeStateCode": 25,
    "state": "PB",
    "stateName": "Paraíba",
    "latitude": -7.07231,
    "longitude": -36.725
  },
  {
    "ibgeCityCode": 2201051,
    "cityName": "Assunção do Piauí",
    "ibgeStateCode": 22,
    "state": "PI",
    "stateName": "Piauí",
    "latitude": -5.865,
    "longitude": -41.0389
  },
  {
    "ibgeCityCode": 3104601,
    "cityName": "Astolfo Dutra",
    "ibgeStateCode": 31,
    "state": "MG",
    "stateName": "Minas Gerais",
    "latitude": -21.3184,
    "longitude": -42.8572
  },
  {
    "ibgeCityCode": 4102109,
    "cityName": "Astorga",
    "ibgeStateCode": 41,
    "state": "PR",
    "stateName": "Paraná",
    "latitude": -23.2318,
    "longitude": -51.6668
  },
  {
    "ibgeCityCode": 2700409,
    "cityName": "Atalaia",
    "ibgeStateCode": 27,
    "state": "AL",
    "stateName": "Alagoas",
    "latitude": -9.5119,
    "longitude": -36.0086
  },
  {
    "ibgeCityCode": 4102208,
    "cityName": "Atalaia",
    "ibgeStateCode": 41,
    "state": "PR",
    "stateName": "Paraná",
    "latitude": -23.1517,
    "longitude": -52.0551
  },
  {
    "ibgeCityCode": 1300201,
    "cityName": "Atalaia do Norte",
    "ibgeStateCode": 13,
    "state": "AM",
    "stateName": "Amazonas",
    "latitude": -4.37055,
    "longitude": -70.1967
  },
  {
    "ibgeCityCode": 4201802,
    "cityName": "Atalanta",
    "ibgeStateCode": 42,
    "state": "SC",
    "stateName": "Santa Catarina",
    "latitude": -27.4219,
    "longitude": -49.7789
  },
  {
    "ibgeCityCode": 3104700,
    "cityName": "Ataléia",
    "ibgeStateCode": 31,
    "state": "MG",
    "stateName": "Minas Gerais",
    "latitude": -18.0438,
    "longitude": -41.1149
  },
  {
    "ibgeCityCode": 3504107,
    "cityName": "Atibaia",
    "ibgeStateCode": 35,
    "state": "SP",
    "stateName": "São Paulo",
    "latitude": -23.1171,
    "longitude": -46.5563
  },
  {
    "ibgeCityCode": 3200706,
    "cityName": "Atilio Vivacqua",
    "ibgeStateCode": 32,
    "state": "ES",
    "stateName": "Espírito Santo",
    "latitude": -20.913,
    "longitude": -41.1986
  },
  {
    "ibgeCityCode": 1702554,
    "cityName": "Augustinópolis",
    "ibgeStateCode": 17,
    "state": "TO",
    "stateName": "Tocantins",
    "latitude": -5.46863,
    "longitude": -47.8863
  },
  {
    "ibgeCityCode": 3104809,
    "cityName": "Augusto de Lima",
    "ibgeStateCode": 31,
    "state": "MG",
    "stateName": "Minas Gerais",
    "latitude": -18.0997,
    "longitude": -44.2655
  },
  {
    "ibgeCityCode": 4301503,
    "cityName": "Augusto Pestana",
    "ibgeStateCode": 43,
    "state": "RS",
    "stateName": "Rio Grande do Sul",
    "latitude": -28.5172,
    "longitude": -53.9883
  },
  {
    "ibgeCityCode": 4301552,
    "cityName": "Áurea",
    "ibgeStateCode": 43,
    "state": "RS",
    "stateName": "Rio Grande do Sul",
    "latitude": -27.6936,
    "longitude": -52.0505
  },
  {
    "ibgeCityCode": 2902401,
    "cityName": "Aurelino Leal",
    "ibgeStateCode": 29,
    "state": "BA",
    "stateName": "Bahia",
    "latitude": -14.321,
    "longitude": -39.329
  },
  {
    "ibgeCityCode": 3504206,
    "cityName": "Auriflama",
    "ibgeStateCode": 35,
    "state": "SP",
    "stateName": "São Paulo",
    "latitude": -20.6836,
    "longitude": -50.5572
  },
  {
    "ibgeCityCode": 5202601,
    "cityName": "Aurilândia",
    "ibgeStateCode": 52,
    "state": "GO",
    "stateName": "Goiás",
    "latitude": -16.6773,
    "longitude": -50.4641
  },
  {
    "ibgeCityCode": 2301703,
    "cityName": "Aurora",
    "ibgeStateCode": 23,
    "state": "CE",
    "stateName": "Ceará",
    "latitude": -6.93349,
    "longitude": -38.9742
  },
  {
    "ibgeCityCode": 4201901,
    "cityName": "Aurora",
    "ibgeStateCode": 42,
    "state": "SC",
    "stateName": "Santa Catarina",
    "latitude": -27.3098,
    "longitude": -49.6295
  },
  {
    "ibgeCityCode": 1500958,
    "cityName": "Aurora do Pará",
    "ibgeStateCode": 15,
    "state": "PA",
    "stateName": "Pará",
    "latitude": -2.14898,
    "longitude": -47.5677
  },
  {
    "ibgeCityCode": 1702703,
    "cityName": "Aurora do Tocantins",
    "ibgeStateCode": 17,
    "state": "TO",
    "stateName": "Tocantins",
    "latitude": -12.7105,
    "longitude": -46.4076
  },
  {
    "ibgeCityCode": 1300300,
    "cityName": "Autazes",
    "ibgeStateCode": 13,
    "state": "AM",
    "stateName": "Amazonas",
    "latitude": -3.58574,
    "longitude": -59.1256
  },
  {
    "ibgeCityCode": 3504305,
    "cityName": "Avaí",
    "ibgeStateCode": 35,
    "state": "SP",
    "stateName": "São Paulo",
    "latitude": -22.1514,
    "longitude": -49.3356
  },
  {
    "ibgeCityCode": 3504404,
    "cityName": "Avanhandava",
    "ibgeStateCode": 35,
    "state": "SP",
    "stateName": "São Paulo",
    "latitude": -21.4584,
    "longitude": -49.9509
  },
  {
    "ibgeCityCode": 3504503,
    "cityName": "Avaré",
    "ibgeStateCode": 35,
    "state": "SP",
    "stateName": "São Paulo",
    "latitude": -23.1067,
    "longitude": -48.9251
  },
  {
    "ibgeCityCode": 1501006,
    "cityName": "Aveiro",
    "ibgeStateCode": 15,
    "state": "PA",
    "stateName": "Pará",
    "latitude": -3.60841,
    "longitude": -55.3199
  },
  {
    "ibgeCityCode": 2201101,
    "cityName": "Avelino Lopes",
    "ibgeStateCode": 22,
    "state": "PI",
    "stateName": "Piauí",
    "latitude": -10.1345,
    "longitude": -43.9563
  },
  {
    "ibgeCityCode": 5202809,
    "cityName": "Avelinópolis",
    "ibgeStateCode": 52,
    "state": "GO",
    "stateName": "Goiás",
    "latitude": -16.4672,
    "longitude": -49.7579
  },
  {
    "ibgeCityCode": 2101103,
    "cityName": "Axixá",
    "ibgeStateCode": 21,
    "state": "MA",
    "stateName": "Maranhão",
    "latitude": -2.83939,
    "longitude": -44.062
  },
  {
    "ibgeCityCode": 1702901,
    "cityName": "Axixá do Tocantins",
    "ibgeStateCode": 17,
    "state": "TO",
    "stateName": "Tocantins",
    "latitude": -5.61275,
    "longitude": -47.7701
  },
  {
    "ibgeCityCode": 1703008,
    "cityName": "Babaçulândia",
    "ibgeStateCode": 17,
    "state": "TO",
    "stateName": "Tocantins",
    "latitude": -7.20923,
    "longitude": -47.7613
  },
  {
    "ibgeCityCode": 2101202,
    "cityName": "Bacabal",
    "ibgeStateCode": 21,
    "state": "MA",
    "stateName": "Maranhão",
    "latitude": -4.22447,
    "longitude": -44.7832
  },
  {
    "ibgeCityCode": 2101251,
    "cityName": "Bacabeira",
    "ibgeStateCode": 21,
    "state": "MA",
    "stateName": "Maranhão",
    "latitude": -2.96452,
    "longitude": -44.3164
  },
  {
    "ibgeCityCode": 2101301,
    "cityName": "Bacuri",
    "ibgeStateCode": 21,
    "state": "MA",
    "stateName": "Maranhão",
    "latitude": -1.6965,
    "longitude": -45.1328
  },
  {
    "ibgeCityCode": 2101350,
    "cityName": "Bacurituba",
    "ibgeStateCode": 21,
    "state": "MA",
    "stateName": "Maranhão",
    "latitude": -2.71,
    "longitude": -44.7329
  },
  {
    "ibgeCityCode": 3504602,
    "cityName": "Bady Bassitt",
    "ibgeStateCode": 35,
    "state": "SP",
    "stateName": "São Paulo",
    "latitude": -20.9197,
    "longitude": -49.4385
  },
  {
    "ibgeCityCode": 3104908,
    "cityName": "Baependi",
    "ibgeStateCode": 31,
    "state": "MG",
    "stateName": "Minas Gerais",
    "latitude": -21.957,
    "longitude": -44.8874
  },
  {
    "ibgeCityCode": 4301602,
    "cityName": "Bagé",
    "ibgeStateCode": 43,
    "state": "RS",
    "stateName": "Rio Grande do Sul",
    "latitude": -31.3297,
    "longitude": -54.0999
  },
  {
    "ibgeCityCode": 1501105,
    "cityName": "Bagre",
    "ibgeStateCode": 15,
    "state": "PA",
    "stateName": "Pará",
    "latitude": -1.90057,
    "longitude": -50.1987
  },
  {
    "ibgeCityCode": 2501401,
    "cityName": "Baía da Traição",
    "ibgeStateCode": 25,
    "state": "PB",
    "stateName": "Paraíba",
    "latitude": -6.69209,
    "longitude": -34.9381
  },
  {
    "ibgeCityCode": 2401404,
    "cityName": "Baía Formosa",
    "ibgeStateCode": 24,
    "state": "RN",
    "stateName": "Rio Grande do Norte",
    "latitude": -6.37161,
    "longitude": -35.0033
  },
  {
    "ibgeCityCode": 2902500,
    "cityName": "Baianópolis",
    "ibgeStateCode": 29,
    "state": "BA",
    "stateName": "Bahia",
    "latitude": -12.3016,
    "longitude": -44.5388
  },
  {
    "ibgeCityCode": 1501204,
    "cityName": "Baião",
    "ibgeStateCode": 15,
    "state": "PA",
    "stateName": "Pará",
    "latitude": -2.79021,
    "longitude": -49.6694
  },
  {
    "ibgeCityCode": 2902609,
    "cityName": "Baixa Grande",
    "ibgeStateCode": 29,
    "state": "BA",
    "stateName": "Bahia",
    "latitude": -11.9519,
    "longitude": -40.169
  },
  {
    "ibgeCityCode": 2201150,
    "cityName": "Baixa Grande do Ribeiro",
    "ibgeStateCode": 22,
    "state": "PI",
    "stateName": "Piauí",
    "latitude": -7.84903,
    "longitude": -45.219
  },
  {
    "ibgeCityCode": 2301802,
    "cityName": "Baixio",
    "ibgeStateCode": 23,
    "state": "CE",
    "stateName": "Ceará",
    "latitude": -6.71945,
    "longitude": -38.7134
  },
  {
    "ibgeCityCode": 3200805,
    "cityName": "Baixo Guandu",
    "ibgeStateCode": 32,
    "state": "ES",
    "stateName": "Espírito Santo",
    "latitude": -19.5213,
    "longitude": -41.0109
  },
  {
    "ibgeCityCode": 3504701,
    "cityName": "Balbinos",
    "ibgeStateCode": 35,
    "state": "SP",
    "stateName": "São Paulo",
    "latitude": -21.8963,
    "longitude": -49.3619
  },
  {
    "ibgeCityCode": 3105004,
    "cityName": "Baldim",
    "ibgeStateCode": 31,
    "state": "MG",
    "stateName": "Minas Gerais",
    "latitude": -19.2832,
    "longitude": -43.9613
  },
  {
    "ibgeCityCode": 5203104,
    "cityName": "Baliza",
    "ibgeStateCode": 52,
    "state": "GO",
    "stateName": "Goiás",
    "latitude": -16.1966,
    "longitude": -52.5393
  },
  {
    "ibgeCityCode": 4201950,
    "cityName": "Balneário Arroio do Silva",
    "ibgeStateCode": 42,
    "state": "SC",
    "stateName": "Santa Catarina",
    "latitude": -28.9806,
    "longitude": -49.4237
  },
  {
    "ibgeCityCode": 4202057,
    "cityName": "Balneário Barra do Sul",
    "ibgeStateCode": 42,
    "state": "SC",
    "stateName": "Santa Catarina",
    "latitude": -26.4597,
    "longitude": -48.6123
  },
  {
    "ibgeCityCode": 4202008,
    "cityName": "Balneário Camboriú",
    "ibgeStateCode": 42,
    "state": "SC",
    "stateName": "Santa Catarina",
    "latitude": -26.9926,
    "longitude": -48.6352
  },
  {
    "ibgeCityCode": 4202073,
    "cityName": "Balneário Gaivota",
    "ibgeStateCode": 42,
    "state": "SC",
    "stateName": "Santa Catarina",
    "latitude": -29.1527,
    "longitude": -49.5841
  },
  {
    "ibgeCityCode": 4301636,
    "cityName": "Balneário Pinhal",
    "ibgeStateCode": 43,
    "state": "RS",
    "stateName": "Rio Grande do Sul",
    "latitude": -30.2419,
    "longitude": -50.2337
  },
  {
    "ibgeCityCode": 4102307,
    "cityName": "Balsa Nova",
    "ibgeStateCode": 41,
    "state": "PR",
    "stateName": "Paraná",
    "latitude": -25.5804,
    "longitude": -49.6291
  },
  {
    "ibgeCityCode": 3504800,
    "cityName": "Bálsamo",
    "ibgeStateCode": 35,
    "state": "SP",
    "stateName": "São Paulo",
    "latitude": -20.7348,
    "longitude": -49.5865
  },
  {
    "ibgeCityCode": 2101400,
    "cityName": "Balsas",
    "ibgeStateCode": 21,
    "state": "MA",
    "stateName": "Maranhão",
    "latitude": -7.53214,
    "longitude": -46.0372
  },
  {
    "ibgeCityCode": 3105103,
    "cityName": "Bambuí",
    "ibgeStateCode": 31,
    "state": "MG",
    "stateName": "Minas Gerais",
    "latitude": -20.0166,
    "longitude": -45.9754
  },
  {
    "ibgeCityCode": 2301851,
    "cityName": "Banabuiú",
    "ibgeStateCode": 23,
    "state": "CE",
    "stateName": "Ceará",
    "latitude": -5.30454,
    "longitude": -38.9132
  },
  {
    "ibgeCityCode": 3504909,
    "cityName": "Bananal",
    "ibgeStateCode": 35,
    "state": "SP",
    "stateName": "São Paulo",
    "latitude": -22.6819,
    "longitude": -44.3281
  },
  {
    "ibgeCityCode": 2501500,
    "cityName": "Bananeiras",
    "ibgeStateCode": 25,
    "state": "PB",
    "stateName": "Paraíba",
    "latitude": -6.74775,
    "longitude": -35.6246
  },
  {
    "ibgeCityCode": 3105202,
    "cityName": "Bandeira",
    "ibgeStateCode": 31,
    "state": "MG",
    "stateName": "Minas Gerais",
    "latitude": -15.8783,
    "longitude": -40.5622
  },
  {
    "ibgeCityCode": 3105301,
    "cityName": "Bandeira do Sul",
    "ibgeStateCode": 31,
    "state": "MG",
    "stateName": "Minas Gerais",
    "latitude": -21.7308,
    "longitude": -46.3833
  },
  {
    "ibgeCityCode": 4202081,
    "cityName": "Bandeirante",
    "ibgeStateCode": 42,
    "state": "SC",
    "stateName": "Santa Catarina",
    "latitude": -26.7705,
    "longitude": -53.6413
  },
  {
    "ibgeCityCode": 5001508,
    "cityName": "Bandeirantes",
    "ibgeStateCode": 50,
    "state": "MS",
    "stateName": "Mato Grosso do Sul",
    "latitude": -19.9275,
    "longitude": -54.3585
  },
  {
    "ibgeCityCode": 4102406,
    "cityName": "Bandeirantes",
    "ibgeStateCode": 41,
    "state": "PR",
    "stateName": "Paraná",
    "latitude": -23.1078,
    "longitude": -50.3704
  },
  {
    "ibgeCityCode": 1703057,
    "cityName": "Bandeirantes do Tocantins",
    "ibgeStateCode": 17,
    "state": "TO",
    "stateName": "Tocantins",
    "latitude": -7.75612,
    "longitude": -48.5836
  },
  {
    "ibgeCityCode": 1501253,
    "cityName": "Bannach",
    "ibgeStateCode": 15,
    "state": "PA",
    "stateName": "Pará",
    "latitude": -7.34779,
    "longitude": -50.3959
  },
  {
    "ibgeCityCode": 2902658,
    "cityName": "Banzaê",
    "ibgeStateCode": 29,
    "state": "BA",
    "stateName": "Bahia",
    "latitude": -10.5788,
    "longitude": -38.6212
  },
  {
    "ibgeCityCode": 4301651,
    "cityName": "Barão",
    "ibgeStateCode": 43,
    "state": "RS",
    "stateName": "Rio Grande do Sul",
    "latitude": -29.3725,
    "longitude": -51.4949
  },
  {
    "ibgeCityCode": 3505005,
    "cityName": "Barão de Antonina",
    "ibgeStateCode": 35,
    "state": "SP",
    "stateName": "São Paulo",
    "latitude": -23.6284,
    "longitude": -49.5634
  },
  {
    "ibgeCityCode": 3105400,
    "cityName": "Barão de Cocais",
    "ibgeStateCode": 31,
    "state": "MG",
    "stateName": "Minas Gerais",
    "latitude": -19.9389,
    "longitude": -43.4755
  },
  {
    "ibgeCityCode": 4301701,
    "cityName": "Barão de Cotegipe",
    "ibgeStateCode": 43,
    "state": "RS",
    "stateName": "Rio Grande do Sul",
    "latitude": -27.6208,
    "longitude": -52.3798
  },
  {
    "ibgeCityCode": 2101509,
    "cityName": "Barão de Grajaú",
    "ibgeStateCode": 21,
    "state": "MA",
    "stateName": "Maranhão",
    "latitude": -6.74463,
    "longitude": -43.0261
  },
  {
    "ibgeCityCode": 5101605,
    "cityName": "Barão de Melgaço",
    "ibgeStateCode": 51,
    "state": "MT",
    "stateName": "Mato Grosso",
    "latitude": -16.2067,
    "longitude": -55.9623
  },
  {
    "ibgeCityCode": 3105509,
    "cityName": "Barão de Monte Alto",
    "ibgeStateCode": 31,
    "state": "MG",
    "stateName": "Minas Gerais",
    "latitude": -21.2444,
    "longitude": -42.2372
  },
  {
    "ibgeCityCode": 4301750,
    "cityName": "Barão do Triunfo",
    "ibgeStateCode": 43,
    "state": "RS",
    "stateName": "Rio Grande do Sul",
    "latitude": -30.3891,
    "longitude": -51.7384
  },
  {
    "ibgeCityCode": 2401453,
    "cityName": "Baraúna",
    "ibgeStateCode": 24,
    "state": "RN",
    "stateName": "Rio Grande do Norte",
    "latitude": -5.06977,
    "longitude": -37.6129
  },
  {
    "ibgeCityCode": 2501534,
    "cityName": "Baraúna",
    "ibgeStateCode": 25,
    "state": "PB",
    "stateName": "Paraíba",
    "latitude": -6.63484,
    "longitude": -36.2601
  },
  {
    "ibgeCityCode": 3105608,
    "cityName": "Barbacena",
    "ibgeStateCode": 31,
    "state": "MG",
    "stateName": "Minas Gerais",
    "latitude": -21.2214,
    "longitude": -43.7703
  },
  {
    "ibgeCityCode": 2301901,
    "cityName": "Barbalha",
    "ibgeStateCode": 23,
    "state": "CE",
    "stateName": "Ceará",
    "latitude": -7.2982,
    "longitude": -39.3021
  },
  {
    "ibgeCityCode": 3505104,
    "cityName": "Barbosa",
    "ibgeStateCode": 35,
    "state": "SP",
    "stateName": "São Paulo",
    "latitude": -21.2657,
    "longitude": -49.9518
  },
  {
    "ibgeCityCode": 4102505,
    "cityName": "Barbosa Ferraz",
    "ibgeStateCode": 41,
    "state": "PR",
    "stateName": "Paraná",
    "latitude": -24.0334,
    "longitude": -52.004
  },
  {
    "ibgeCityCode": 1501303,
    "cityName": "Barcarena",
    "ibgeStateCode": 15,
    "state": "PA",
    "stateName": "Pará",
    "latitude": -1.51187,
    "longitude": -48.6195
  },
  {
    "ibgeCityCode": 2401503,
    "cityName": "Barcelona",
    "ibgeStateCode": 24,
    "state": "RN",
    "stateName": "Rio Grande do Norte",
    "latitude": -5.94284,
    "longitude": -35.9247
  },
  {
    "ibgeCityCode": 1300409,
    "cityName": "Barcelos",
    "ibgeStateCode": 13,
    "state": "AM",
    "stateName": "Amazonas",
    "latitude": -0.983373,
    "longitude": -62.9311
  },
  {
    "ibgeCityCode": 3505203,
    "cityName": "Bariri",
    "ibgeStateCode": 35,
    "state": "SP",
    "stateName": "São Paulo",
    "latitude": -22.073,
    "longitude": -48.7438
  },
  {
    "ibgeCityCode": 2902708,
    "cityName": "Barra",
    "ibgeStateCode": 29,
    "state": "BA",
    "stateName": "Bahia",
    "latitude": -11.0859,
    "longitude": -43.1459
  },
  {
    "ibgeCityCode": 3505302,
    "cityName": "Barra Bonita",
    "ibgeStateCode": 35,
    "state": "SP",
    "stateName": "São Paulo",
    "latitude": -22.4909,
    "longitude": -48.5583
  },
  {
    "ibgeCityCode": 4202099,
    "cityName": "Barra Bonita",
    "ibgeStateCode": 42,
    "state": "SC",
    "stateName": "Santa Catarina",
    "latitude": -26.654,
    "longitude": -53.44
  },
  {
    "ibgeCityCode": 2201176,
    "cityName": "Barra D'Alcântara",
    "ibgeStateCode": 22,
    "state": "PI",
    "stateName": "Piauí",
    "latitude": -6.51645,
    "longitude": -42.1146
  },
  {
    "ibgeCityCode": 2902807,
    "cityName": "Barra da Estiva",
    "ibgeStateCode": 29,
    "state": "BA",
    "stateName": "Bahia",
    "latitude": -13.6237,
    "longitude": -41.3347
  },
  {
    "ibgeCityCode": 2601300,
    "cityName": "Barra de Guabiraba",
    "ibgeStateCode": 26,
    "state": "PE",
    "stateName": "Pernambuco",
    "latitude": -8.42075,
    "longitude": -35.6585
  },
  {
    "ibgeCityCode": 2501609,
    "cityName": "Barra de Santa Rosa",
    "ibgeStateCode": 25,
    "state": "PB",
    "stateName": "Paraíba",
    "latitude": -6.71816,
    "longitude": -36.0671
  },
  {
    "ibgeCityCode": 2501575,
    "cityName": "Barra de Santana",
    "ibgeStateCode": 25,
    "state": "PB",
    "stateName": "Paraíba",
    "latitude": -7.51809,
    "longitude": -35.9913
  },
  {
    "ibgeCityCode": 2700508,
    "cityName": "Barra de Santo Antônio",
    "ibgeStateCode": 27,
    "state": "AL",
    "stateName": "Alagoas",
    "latitude": -9.4023,
    "longitude": -35.5101
  },
  {
    "ibgeCityCode": 3200904,
    "cityName": "Barra de São Francisco",
    "ibgeStateCode": 32,
    "state": "ES",
    "stateName": "Espírito Santo",
    "latitude": -18.7548,
    "longitude": -40.8965
  },
  {
    "ibgeCityCode": 2700607,
    "cityName": "Barra de São Miguel",
    "ibgeStateCode": 27,
    "state": "AL",
    "stateName": "Alagoas",
    "latitude": -9.83842,
    "longitude": -35.9057
  },
  {
    "ibgeCityCode": 2501708,
    "cityName": "Barra de São Miguel",
    "ibgeStateCode": 25,
    "state": "PB",
    "stateName": "Paraíba",
    "latitude": -7.74603,
    "longitude": -36.3209
  },
  {
    "ibgeCityCode": 5101704,
    "cityName": "Barra do Bugres",
    "ibgeStateCode": 51,
    "state": "MT",
    "stateName": "Mato Grosso",
    "latitude": -15.0702,
    "longitude": -57.1878
  },
  {
    "ibgeCityCode": 3505351,
    "cityName": "Barra do Chapéu",
    "ibgeStateCode": 35,
    "state": "SP",
    "stateName": "São Paulo",
    "latitude": -24.4722,
    "longitude": -49.0238
  },
  {
    "ibgeCityCode": 2902906,
    "cityName": "Barra do Choça",
    "ibgeStateCode": 29,
    "state": "BA",
    "stateName": "Bahia",
    "latitude": -14.8654,
    "longitude": -40.5791
  },
  {
    "ibgeCityCode": 2101608,
    "cityName": "Barra do Corda",
    "ibgeStateCode": 21,
    "state": "MA",
    "stateName": "Maranhão",
    "latitude": -5.49682,
    "longitude": -45.2485
  },